[
  {
    "city": "Warsaw",
    "city_ascii": "Warsaw",
    "lat": 52.23,
    "lng": 21.0111,
    "country": "Poland",
    "iso2": "PL",
    "iso3": "POL",
    "admin_name": "Mazowieckie",
    "capital": "primary",
    "population": 1860281,
    "id": "971091b3-1e39-412f-9264-dceb9bfb6e33"
  },
  {
    "city": "Kraków",
    "city_ascii": "Krakow",
    "lat": 50.0614,
    "lng": 19.9372,
    "country": "Poland",
    "iso2": "PL",
    "iso3": "POL",
    "admin_name": "Małopolskie",
    "capital": "admin",
    "population": 800653,
    "id": "ee60a929-30f8-491c-9f1b-b47bb56ba34f"
  },
  {
    "city": "Łódź",
    "city_ascii": "Lodz",
    "lat": 51.7769,
    "lng": 19.4547,
    "country": "Poland",
    "iso2": "PL",
    "iso3": "POL",
    "admin_name": "Łódzkie",
    "capital": "admin",
    "population": 690422,
    "id": "3335fb00-99cb-4255-840f-7e66a5966ee0"
  },
  {
    "city": "Wrocław",
    "city_ascii": "Wroclaw",
    "lat": 51.11,
    "lng": 17.0325,
    "country": "Poland",
    "iso2": "PL",
    "iso3": "POL",
    "admin_name": "Dolnośląskie",
    "capital": "admin",
    "population": 672929,
    "id": "958829c9-a40f-4d6b-b218-fd82819802e2"
  },
  {
    "city": "Poznań",
    "city_ascii": "Poznan",
    "lat": 52.4083,
    "lng": 16.9336,
    "country": "Poland",
    "iso2": "PL",
    "iso3": "POL",
    "admin_name": "Wielkopolskie",
    "capital": "admin",
    "population": 546859,
    "id": "7d9ed5d3-5366-4845-83b6-374a1a50d7bb"
  },
  {
    "city": "Gdańsk",
    "city_ascii": "Gdansk",
    "lat": 54.3475,
    "lng": 18.6453,
    "country": "Poland",
    "iso2": "PL",
    "iso3": "POL",
    "admin_name": "Pomorskie",
    "capital": "admin",
    "population": 486022,
    "id": "cbee53a2-868a-4e31-baac-e1f1dd65a0c0"
  },
  {
    "city": "Szczecin",
    "city_ascii": "Szczecin",
    "lat": 53.4325,
    "lng": 14.5481,
    "country": "Poland",
    "iso2": "PL",
    "iso3": "POL",
    "admin_name": "Zachodniopomorskie",
    "capital": "admin",
    "population": 403833,
    "id": "f338c291-2461-4f7b-b693-27d62169f0f7"
  },
  {
    "city": "Bydgoszcz",
    "city_ascii": "Bydgoszcz",
    "lat": 53.1219,
    "lng": 18.0003,
    "country": "Poland",
    "iso2": "PL",
    "iso3": "POL",
    "admin_name": "Kujawsko-Pomorskie",
    "capital": "admin",
    "population": 346739,
    "id": "156fefbb-49db-4a4c-9630-de0443d8ac22"
  },
  {
    "city": "Lublin",
    "city_ascii": "Lublin",
    "lat": 51.25,
    "lng": 22.5667,
    "country": "Poland",
    "iso2": "PL",
    "iso3": "POL",
    "admin_name": "Lubelskie",
    "capital": "admin",
    "population": 339850,
    "id": "73611f39-91dd-4d9b-8b0e-3e7c4c2823e9"
  },
  {
    "city": "Bielsko-Biała",
    "city_ascii": "Bielsko-Biala",
    "lat": 49.8225,
    "lng": 19.0444,
    "country": "Poland",
    "iso2": "PL",
    "iso3": "POL",
    "admin_name": "Śląskie",
    "capital": "minor",
    "population": 325000,
    "id": "77e3ae47-904a-4b72-9a1f-00a0a9941acb"
  },
  {
    "city": "Białystok",
    "city_ascii": "Bialystok",
    "lat": 53.1353,
    "lng": 23.1456,
    "country": "Poland",
    "iso2": "PL",
    "iso3": "POL",
    "admin_name": "Podlaskie",
    "capital": "admin",
    "population": 297554,
    "id": "b9afc332-d9f7-4412-9132-9f131e046bf0"
  },
  {
    "city": "Katowice",
    "city_ascii": "Katowice",
    "lat": 50.2667,
    "lng": 19.0167,
    "country": "Poland",
    "iso2": "PL",
    "iso3": "POL",
    "admin_name": "Śląskie",
    "capital": "admin",
    "population": 285711,
    "id": "00bd2725-55ff-4b9a-ba5b-e2a0b1598c68"
  },
  {
    "city": "Gdynia",
    "city_ascii": "Gdynia",
    "lat": 54.5,
    "lng": 18.5333,
    "country": "Poland",
    "iso2": "PL",
    "iso3": "POL",
    "admin_name": "Pomorskie",
    "capital": "minor",
    "population": 247672,
    "id": "7aa676f7-848c-4953-972c-3faa7549af27"
  },
  {
    "city": "Częstochowa",
    "city_ascii": "Czestochowa",
    "lat": 50.8,
    "lng": 19.1167,
    "country": "Poland",
    "iso2": "PL",
    "iso3": "POL",
    "admin_name": "Śląskie",
    "capital": "minor",
    "population": 223322,
    "id": "bd5f50f9-9309-4257-8e9a-1d0748073759"
  },
  {
    "city": "Radom",
    "city_ascii": "Radom",
    "lat": 51.4036,
    "lng": 21.1567,
    "country": "Poland",
    "iso2": "PL",
    "iso3": "POL",
    "admin_name": "Mazowieckie",
    "capital": "minor",
    "population": 219703,
    "id": "51b1aa00-5f49-4e64-ae50-05bcc5cbc72f"
  },
  {
    "city": "Zielona Góra",
    "city_ascii": "Zielona Gora",
    "lat": 51.9333,
    "lng": 15.5,
    "country": "Poland",
    "iso2": "PL",
    "iso3": "POL",
    "admin_name": "Lubuskie",
    "capital": "admin",
    "population": 216781,
    "id": "43d5efa5-ebed-4cc5-9267-74971c4b6d0c"
  },
  {
    "city": "Toruń",
    "city_ascii": "Torun",
    "lat": 53.0222,
    "lng": 18.6111,
    "country": "Poland",
    "iso2": "PL",
    "iso3": "POL",
    "admin_name": "Kujawsko-Pomorskie",
    "capital": "admin",
    "population": 201447,
    "id": "345d62b8-0f5d-4a80-a3ea-63e99d2fd46c"
  },
  {
    "city": "Rzeszów",
    "city_ascii": "Rzeszow",
    "lat": 50.0333,
    "lng": 22,
    "country": "Poland",
    "iso2": "PL",
    "iso3": "POL",
    "admin_name": "Podkarpackie",
    "capital": "admin",
    "population": 195871,
    "id": "abe18f3a-0835-4677-8276-9eaae06ec8ce"
  },
  {
    "city": "Sosnowiec",
    "city_ascii": "Sosnowiec",
    "lat": 50.2833,
    "lng": 19.1333,
    "country": "Poland",
    "iso2": "PL",
    "iso3": "POL",
    "admin_name": "Śląskie",
    "capital": "minor",
    "population": 193660,
    "id": "18c0ae0e-1f11-4c9d-88e3-36d0d6532a4f"
  },
  {
    "city": "Kielce",
    "city_ascii": "Kielce",
    "lat": 50.8742,
    "lng": 20.6333,
    "country": "Poland",
    "iso2": "PL",
    "iso3": "POL",
    "admin_name": "Świętokrzyskie",
    "capital": "admin",
    "population": 191605,
    "id": "196e4971-7bb8-40dd-b1e9-a07e6d9b21de"
  },
  {
    "city": "Olsztyn",
    "city_ascii": "Olsztyn",
    "lat": 53.7778,
    "lng": 20.4792,
    "country": "Poland",
    "iso2": "PL",
    "iso3": "POL",
    "admin_name": "Warmińsko-Mazurskie",
    "capital": "admin",
    "population": 173599,
    "id": "eb821168-b8c3-4959-b364-0d180f039b68"
  },
  {
    "city": "Gliwice",
    "city_ascii": "Gliwice",
    "lat": 50.2833,
    "lng": 18.6667,
    "country": "Poland",
    "iso2": "PL",
    "iso3": "POL",
    "admin_name": "Śląskie",
    "capital": "minor",
    "population": 174016,
    "id": "87bc4594-4db7-41b6-b596-76d5fae0575c"
  },
  {
    "city": "Zabrze",
    "city_ascii": "Zabrze",
    "lat": 50.3025,
    "lng": 18.7781,
    "country": "Poland",
    "iso2": "PL",
    "iso3": "POL",
    "admin_name": "Śląskie",
    "capital": "minor",
    "population": 158307,
    "id": "2729a688-a103-4015-b766-5d173bf30b3b"
  },
  {
    "city": "Bytom",
    "city_ascii": "Bytom",
    "lat": 50.3483,
    "lng": 18.9156,
    "country": "Poland",
    "iso2": "PL",
    "iso3": "POL",
    "admin_name": "Śląskie",
    "capital": "minor",
    "population": 153274,
    "id": "c17cff90-d646-4cd3-8f35-f2791f2e5b64"
  },
  {
    "city": "Rybnik",
    "city_ascii": "Rybnik",
    "lat": 50.0833,
    "lng": 18.55,
    "country": "Poland",
    "iso2": "PL",
    "iso3": "POL",
    "admin_name": "Śląskie",
    "capital": "minor",
    "population": 141000,
    "id": "4f6b5f2f-e40e-43d2-be07-af3d72a5ee7c"
  },
  {
    "city": "Ruda Śląska",
    "city_ascii": "Ruda Slaska",
    "lat": 50.2628,
    "lng": 18.8536,
    "country": "Poland",
    "iso2": "PL",
    "iso3": "POL",
    "admin_name": "Śląskie",
    "capital": "minor",
    "population": 133793,
    "id": "59d92bc9-f7ed-407e-a23f-fb51ec96fa25"
  },
  {
    "city": "Tychy",
    "city_ascii": "Tychy",
    "lat": 50.1236,
    "lng": 18.9867,
    "country": "Poland",
    "iso2": "PL",
    "iso3": "POL",
    "admin_name": "Śląskie",
    "capital": "minor",
    "population": 129322,
    "id": "30cb68dc-1430-4531-ab2f-46348b4d2207"
  },
  {
    "city": "Opole",
    "city_ascii": "Opole",
    "lat": 50.6667,
    "lng": 17.9333,
    "country": "Poland",
    "iso2": "PL",
    "iso3": "POL",
    "admin_name": "Opolskie",
    "capital": "admin",
    "population": 127792,
    "id": "1271586c-f32d-4269-9a38-3516276857e1"
  },
  {
    "city": "Gorzów Wielkopolski",
    "city_ascii": "Gorzow Wielkopolski",
    "lat": 52.7333,
    "lng": 15.25,
    "country": "Poland",
    "iso2": "PL",
    "iso3": "POL",
    "admin_name": "Lubuskie",
    "capital": "admin",
    "population": 123341,
    "id": "a4af34d4-734c-4160-b9a1-92c7d6aa01dd"
  },
  {
    "city": "Płock",
    "city_ascii": "Plock",
    "lat": 52.55,
    "lng": 19.7,
    "country": "Poland",
    "iso2": "PL",
    "iso3": "POL",
    "admin_name": "Mazowieckie",
    "capital": "minor",
    "population": 120000,
    "id": "bb71ef1d-af8f-4f23-8dfb-bdd24d1dcea0"
  },
  {
    "city": "Elbląg",
    "city_ascii": "Elblag",
    "lat": 54.1667,
    "lng": 19.4,
    "country": "Poland",
    "iso2": "PL",
    "iso3": "POL",
    "admin_name": "Warmińsko-Mazurskie",
    "capital": "minor",
    "population": 119317,
    "id": "4f874a1e-383b-4b34-b70f-f72934b6754b"
  },
  {
    "city": "Dąbrowa Górnicza",
    "city_ascii": "Dabrowa Gornicza",
    "lat": 50.3214,
    "lng": 19.1872,
    "country": "Poland",
    "iso2": "PL",
    "iso3": "POL",
    "admin_name": "Śląskie",
    "capital": "minor",
    "population": 116930,
    "id": "aa52aac7-6e34-4ee2-9e7c-a961453f9b7e"
  },
  {
    "city": "Wałbrzych",
    "city_ascii": "Walbrzych",
    "lat": 50.7667,
    "lng": 16.2833,
    "country": "Poland",
    "iso2": "PL",
    "iso3": "POL",
    "admin_name": "Dolnośląskie",
    "capital": "minor",
    "population": 116069,
    "id": "2bf4f4e0-fec1-4a20-bd67-6b30fae0d03b"
  },
  {
    "city": "Tarnów",
    "city_ascii": "Tarnow",
    "lat": 50.0125,
    "lng": 20.9886,
    "country": "Poland",
    "iso2": "PL",
    "iso3": "POL",
    "admin_name": "Małopolskie",
    "capital": "minor",
    "population": 110956,
    "id": "821b6ff2-089a-43be-8d95-bc3fc0702a01"
  },
  {
    "city": "Koszalin",
    "city_ascii": "Koszalin",
    "lat": 54.2,
    "lng": 16.1833,
    "country": "Poland",
    "iso2": "PL",
    "iso3": "POL",
    "admin_name": "Zachodniopomorskie",
    "capital": "minor",
    "population": 106880,
    "id": "728b0670-8f84-4dc1-bb9d-76f607eeec64"
  },
  {
    "city": "Chorzów",
    "city_ascii": "Chorzow",
    "lat": 50.3,
    "lng": 18.95,
    "country": "Poland",
    "iso2": "PL",
    "iso3": "POL",
    "admin_name": "Śląskie",
    "capital": "minor",
    "population": 104193,
    "id": "b5d8574f-7fdf-468d-9b37-dcd2e27515e7"
  },
  {
    "city": "Włocławek",
    "city_ascii": "Wloclawek",
    "lat": 52.6592,
    "lng": 19.0681,
    "country": "Poland",
    "iso2": "PL",
    "iso3": "POL",
    "admin_name": "Kujawsko-Pomorskie",
    "capital": "minor",
    "population": 104705,
    "id": "77fd1e47-f4b1-4d34-9b5d-319a09337186"
  },
  {
    "city": "Inowrocław",
    "city_ascii": "Inowroclaw",
    "lat": 52.7931,
    "lng": 18.2611,
    "country": "Poland",
    "iso2": "PL",
    "iso3": "POL",
    "admin_name": "Kujawsko-Pomorskie",
    "capital": "minor",
    "population": 72561,
    "id": "f97b22d8-aa37-4d29-b246-b8de128ac34c"
  },
  {
    "city": "Pruszków",
    "city_ascii": "Pruszkow",
    "lat": 52.1667,
    "lng": 20.8,
    "country": "Poland",
    "iso2": "PL",
    "iso3": "POL",
    "admin_name": "Mazowieckie",
    "capital": "minor",
    "population": 65283,
    "id": "730472ea-ea9b-4fd1-a73a-7d3001ee6c5b"
  },
  {
    "city": "Siemianowice Śląskie",
    "city_ascii": "Siemianowice Slaskie",
    "lat": 50.2758,
    "lng": 18.9858,
    "country": "Poland",
    "iso2": "PL",
    "iso3": "POL",
    "admin_name": "Śląskie",
    "capital": "minor",
    "population": 64676,
    "id": "ef4c817d-8fa8-4d90-b28c-94370d991d7e"
  },
  {
    "city": "Ełk",
    "city_ascii": "Elk",
    "lat": 53.8214,
    "lng": 22.3622,
    "country": "Poland",
    "iso2": "PL",
    "iso3": "POL",
    "admin_name": "Warmińsko-Mazurskie",
    "capital": "minor",
    "population": 62006,
    "id": "fd8dc4a8-c796-4588-a765-c6154cd4a2ef"
  },
  {
    "city": "Tczew",
    "city_ascii": "Tczew",
    "lat": 54.0875,
    "lng": 18.7972,
    "country": "Poland",
    "iso2": "PL",
    "iso3": "POL",
    "admin_name": "Pomorskie",
    "capital": "minor",
    "population": 57990,
    "id": "d23271a3-964d-47ae-a889-20b0f7f4a762"
  },
  {
    "city": "Świdnica",
    "city_ascii": "Swidnica",
    "lat": 50.85,
    "lng": 16.4833,
    "country": "Poland",
    "iso2": "PL",
    "iso3": "POL",
    "admin_name": "Dolnośląskie",
    "capital": "minor",
    "population": 57761,
    "id": "cb753cc9-7983-49b9-860e-087cea8d8238"
  },
  {
    "city": "Legionowo",
    "city_ascii": "Legionowo",
    "lat": 52.4,
    "lng": 20.8833,
    "country": "Poland",
    "iso2": "PL",
    "iso3": "POL",
    "admin_name": "Mazowieckie",
    "capital": "minor",
    "population": 53886,
    "id": "d30c9fa1-9437-4c67-9e98-38c1c8776df6"
  },
  {
    "city": "Świętochłowice",
    "city_ascii": "Swietochlowice",
    "lat": 50.2919,
    "lng": 18.9178,
    "country": "Poland",
    "iso2": "PL",
    "iso3": "POL",
    "admin_name": "Śląskie",
    "capital": "minor",
    "population": 46494,
    "id": "b7c297a5-565e-48fe-8b93-e4c9f9b9d50f"
  },
  {
    "city": "Ząbki",
    "city_ascii": "Zabki",
    "lat": 52.2928,
    "lng": 21.1161,
    "country": "Poland",
    "iso2": "PL",
    "iso3": "POL",
    "admin_name": "Mazowieckie",
    "capital": "",
    "population": 43740,
    "id": "b6a4676b-e204-4e54-b929-d5dc1766112d"
  },
  {
    "city": "Mińsk Mazowiecki",
    "city_ascii": "Minsk Mazowiecki",
    "lat": 52.1833,
    "lng": 21.5667,
    "country": "Poland",
    "iso2": "PL",
    "iso3": "POL",
    "admin_name": "Mazowieckie",
    "capital": "minor",
    "population": 40467,
    "id": "08a209e6-02b7-4cb5-9906-e87988708854"
  },
  {
    "city": "Żyrardów",
    "city_ascii": "Zyrardow",
    "lat": 52.05,
    "lng": 20.4333,
    "country": "Poland",
    "iso2": "PL",
    "iso3": "POL",
    "admin_name": "Mazowieckie",
    "capital": "minor",
    "population": 39374,
    "id": "6275755a-781c-4b3b-8f96-8c2b19b83959"
  },
  {
    "city": "Malbork",
    "city_ascii": "Malbork",
    "lat": 54.0333,
    "lng": 19.0333,
    "country": "Poland",
    "iso2": "PL",
    "iso3": "POL",
    "admin_name": "Pomorskie",
    "capital": "minor",
    "population": 38895,
    "id": "8bcc6340-42a5-40d9-b503-ed3b1e2e19e2"
  },
  {
    "city": "Wołomin",
    "city_ascii": "Wolomin",
    "lat": 52.35,
    "lng": 21.25,
    "country": "Poland",
    "iso2": "PL",
    "iso3": "POL",
    "admin_name": "Mazowieckie",
    "capital": "minor",
    "population": 36311,
    "id": "aa623326-f7b6-4206-a291-c64299338911"
  },
  {
    "city": "Brzeg",
    "city_ascii": "Brzeg",
    "lat": 50.8667,
    "lng": 17.4833,
    "country": "Poland",
    "iso2": "PL",
    "iso3": "POL",
    "admin_name": "Opolskie",
    "capital": "minor",
    "population": 35890,
    "id": "4d0d415b-7ced-4a18-ad9d-486f221c7aed"
  },
  {
    "city": "Luboń",
    "city_ascii": "Lubon",
    "lat": 52.3333,
    "lng": 16.8833,
    "country": "Poland",
    "iso2": "PL",
    "iso3": "POL",
    "admin_name": "Wielkopolskie",
    "capital": "",
    "population": 33024,
    "id": "3748ddf4-a9c0-4a1f-8e68-6b6f0767c93b"
  },
  {
    "city": "Ostróda",
    "city_ascii": "Ostroda",
    "lat": 53.7,
    "lng": 19.9667,
    "country": "Poland",
    "iso2": "PL",
    "iso3": "POL",
    "admin_name": "Warmińsko-Mazurskie",
    "capital": "minor",
    "population": 32052,
    "id": "c541f0b4-5597-4e3d-b79e-92019736c585"
  },
  {
    "city": "Rury",
    "city_ascii": "Rury",
    "lat": 51.2386,
    "lng": 22.5164,
    "country": "Poland",
    "iso2": "PL",
    "iso3": "POL",
    "admin_name": "Lubelskie",
    "capital": "",
    "population": 30093,
    "id": "43788786-bb92-4935-8e74-67b8144b12df"
  },
  {
    "city": "Giżycko",
    "city_ascii": "Gizycko",
    "lat": 54.04,
    "lng": 21.7589,
    "country": "Poland",
    "iso2": "PL",
    "iso3": "POL",
    "admin_name": "Warmińsko-Mazurskie",
    "capital": "minor",
    "population": 29642,
    "id": "8f4d5a75-dfed-4965-b4b0-b49f14c5e7d6"
  },
  {
    "city": "Kętrzyn",
    "city_ascii": "Ketrzyn",
    "lat": 54.0833,
    "lng": 21.3833,
    "country": "Poland",
    "iso2": "PL",
    "iso3": "POL",
    "admin_name": "Warmińsko-Mazurskie",
    "capital": "minor",
    "population": 27827,
    "id": "e401b865-f65e-4875-96a1-7395bbfe6ce0"
  },
  {
    "city": "Piastów",
    "city_ascii": "Piastow",
    "lat": 52.1833,
    "lng": 20.85,
    "country": "Poland",
    "iso2": "PL",
    "iso3": "POL",
    "admin_name": "Mazowieckie",
    "capital": "",
    "population": 23281,
    "id": "15f7d4ca-dfa0-4715-822a-a50a5e16185c"
  },
  {
    "city": "Kościan",
    "city_ascii": "Koscian",
    "lat": 52.0833,
    "lng": 16.65,
    "country": "Poland",
    "iso2": "PL",
    "iso3": "POL",
    "admin_name": "Wielkopolskie",
    "capital": "minor",
    "population": 24086,
    "id": "435b82d0-7712-4a10-b0e1-25fc70bc3564"
  },
  {
    "city": "Szczytno",
    "city_ascii": "Szczytno",
    "lat": 53.5667,
    "lng": 20.9833,
    "country": "Poland",
    "iso2": "PL",
    "iso3": "POL",
    "admin_name": "Warmińsko-Mazurskie",
    "capital": "minor",
    "population": 22813,
    "id": "c4bc8d90-4794-4b65-8303-c99eaac4c00e"
  },
  {
    "city": "Bartoszyce",
    "city_ascii": "Bartoszyce",
    "lat": 54.25,
    "lng": 20.8,
    "country": "Poland",
    "iso2": "PL",
    "iso3": "POL",
    "admin_name": "Warmińsko-Mazurskie",
    "capital": "minor",
    "population": 22984,
    "id": "00c0e9e8-2053-4162-afb5-84a6eb534f12"
  },
  {
    "city": "Łomianki",
    "city_ascii": "Lomianki",
    "lat": 52.3333,
    "lng": 20.8833,
    "country": "Poland",
    "iso2": "PL",
    "iso3": "POL",
    "admin_name": "Mazowieckie",
    "capital": "",
    "population": 18124,
    "id": "d444f983-6346-43de-9535-0ecf4018d190"
  },
  {
    "city": "Biały Kamień",
    "city_ascii": "Bialy Kamien",
    "lat": 50.7814,
    "lng": 16.2539,
    "country": "Poland",
    "iso2": "PL",
    "iso3": "POL",
    "admin_name": "Dolnośląskie",
    "capital": "",
    "population": 14278,
    "id": "5235d29b-462a-4c2b-9854-b25901ef0dee"
  },
  {
    "city": "Sidlice",
    "city_ascii": "Sidlice",
    "lat": 54.3471,
    "lng": 18.6171,
    "country": "Poland",
    "iso2": "PL",
    "iso3": "POL",
    "admin_name": "Pomorskie",
    "capital": "",
    "population": 12842,
    "id": "3a4c4847-687f-49dc-af32-54428db3abb2"
  },
  {
    "city": "Chojnów",
    "city_ascii": "Chojnow",
    "lat": 51.2667,
    "lng": 15.9333,
    "country": "Poland",
    "iso2": "PL",
    "iso3": "POL",
    "admin_name": "Dolnośląskie",
    "capital": "",
    "population": 13904,
    "id": "f9f8c90a-9902-4153-a000-f0e1be0134c6"
  },
  {
    "city": "Puck",
    "city_ascii": "Puck",
    "lat": 54.7,
    "lng": 18.4,
    "country": "Poland",
    "iso2": "PL",
    "iso3": "POL",
    "admin_name": "Pomorskie",
    "capital": "minor",
    "population": 10868,
    "id": "a329627b-de5d-4dd7-bc44-a345160290ea"
  },
  {
    "city": "Kalisz",
    "city_ascii": "Kalisz",
    "lat": 51.7575,
    "lng": 18.08,
    "country": "Poland",
    "iso2": "PL",
    "iso3": "POL",
    "admin_name": "Wielkopolskie",
    "capital": "minor",
    "population": 99761,
    "id": "ea5a5555-eaaf-4b2a-837f-f4c903152d69"
  },
  {
    "city": "Legnica",
    "city_ascii": "Legnica",
    "lat": 51.2083,
    "lng": 16.1603,
    "country": "Poland",
    "iso2": "PL",
    "iso3": "POL",
    "admin_name": "Dolnośląskie",
    "capital": "minor",
    "population": 99350,
    "id": "acee630f-cb76-4940-af4f-2bb57370b8d7"
  },
  {
    "city": "Jaworzno",
    "city_ascii": "Jaworzno",
    "lat": 50.2044,
    "lng": 19.27,
    "country": "Poland",
    "iso2": "PL",
    "iso3": "POL",
    "admin_name": "Śląskie",
    "capital": "minor",
    "population": 94305,
    "id": "3f62ad71-8b8a-4268-9fd9-4754dea1c803"
  },
  {
    "city": "Grudziądz",
    "city_ascii": "Grudziadz",
    "lat": 53.4875,
    "lng": 18.755,
    "country": "Poland",
    "iso2": "PL",
    "iso3": "POL",
    "admin_name": "Kujawsko-Pomorskie",
    "capital": "minor",
    "population": 94368,
    "id": "f6798662-76b1-4035-a2d4-ddad09453cdf"
  },
  {
    "city": "Słupsk",
    "city_ascii": "Slupsk",
    "lat": 54.4658,
    "lng": 17.0292,
    "country": "Poland",
    "iso2": "PL",
    "iso3": "POL",
    "admin_name": "Pomorskie",
    "capital": "minor",
    "population": 87660,
    "id": "43f03f46-4c4e-49b5-ba08-0384ef305184"
  },
  {
    "city": "Jastrzębie-Zdrój",
    "city_ascii": "Jastrzebie-Zdroj",
    "lat": 49.95,
    "lng": 18.5833,
    "country": "Poland",
    "iso2": "PL",
    "iso3": "POL",
    "admin_name": "Śląskie",
    "capital": "minor",
    "population": 85050,
    "id": "3623601d-8018-44ab-89c4-27178678878f"
  },
  {
    "city": "Nowy Sącz",
    "city_ascii": "Nowy Sacz",
    "lat": 49.6239,
    "lng": 20.6972,
    "country": "Poland",
    "iso2": "PL",
    "iso3": "POL",
    "admin_name": "Małopolskie",
    "capital": "minor",
    "population": 81281,
    "id": "0dbdcc73-0e23-48ee-8661-0fe886cbce59"
  },
  {
    "city": "Skarżysko-Kamienna",
    "city_ascii": "Skarzysko-Kamienna",
    "lat": 51.1167,
    "lng": 20.9167,
    "country": "Poland",
    "iso2": "PL",
    "iso3": "POL",
    "admin_name": "Świętokrzyskie",
    "capital": "minor",
    "population": 78636,
    "id": "a33a491b-ddb4-4f40-8454-31c9699435ac"
  },
  {
    "city": "Jelenia Góra",
    "city_ascii": "Jelenia Gora",
    "lat": 50.9033,
    "lng": 15.7344,
    "country": "Poland",
    "iso2": "PL",
    "iso3": "POL",
    "admin_name": "Dolnośląskie",
    "capital": "minor",
    "population": 78335,
    "id": "7c3d58ec-929b-4ef3-8136-b34a765fb58d"
  },
  {
    "city": "Siedlce",
    "city_ascii": "Siedlce",
    "lat": 52.165,
    "lng": 22.2714,
    "country": "Poland",
    "iso2": "PL",
    "iso3": "POL",
    "admin_name": "Mazowieckie",
    "capital": "minor",
    "population": 76585,
    "id": "dd8e064e-1f59-4ade-ae14-1efa7eb8f27b"
  },
  {
    "city": "Piotrków Trybunalski",
    "city_ascii": "Piotrkow Trybunalski",
    "lat": 51.4,
    "lng": 19.6833,
    "country": "Poland",
    "iso2": "PL",
    "iso3": "POL",
    "admin_name": "Łódzkie",
    "capital": "minor",
    "population": 74905,
    "id": "c1eadb04-c1f7-4534-9eac-848d1ee6341e"
  },
  {
    "city": "Konin",
    "city_ascii": "Konin",
    "lat": 52.2167,
    "lng": 18.2667,
    "country": "Poland",
    "iso2": "PL",
    "iso3": "POL",
    "admin_name": "Wielkopolskie",
    "capital": "minor",
    "population": 73176,
    "id": "2a8341cc-d9e5-4fe9-9be2-2bedebd346f8"
  },
  {
    "city": "Mysłowice",
    "city_ascii": "Myslowice",
    "lat": 50.2333,
    "lng": 19.1333,
    "country": "Poland",
    "iso2": "PL",
    "iso3": "POL",
    "admin_name": "Śląskie",
    "capital": "minor",
    "population": 72553,
    "id": "f95cc2f4-8087-4e26-9dcc-18a670267d2c"
  },
  {
    "city": "Ostrowiec Świętokrzyski",
    "city_ascii": "Ostrowiec Swietokrzyski",
    "lat": 50.9333,
    "lng": 21.4,
    "country": "Poland",
    "iso2": "PL",
    "iso3": "POL",
    "admin_name": "Świętokrzyskie",
    "capital": "minor",
    "population": 72001,
    "id": "fb666eb1-55e7-49e6-a576-39e762fd4eaf"
  },
  {
    "city": "Piła",
    "city_ascii": "Pila",
    "lat": 53.15,
    "lng": 16.7333,
    "country": "Poland",
    "iso2": "PL",
    "iso3": "POL",
    "admin_name": "Wielkopolskie",
    "capital": "minor",
    "population": 71735,
    "id": "c81c5c9a-a030-431f-914a-405a44482e48"
  },
  {
    "city": "Ostrów Wielkopolski",
    "city_ascii": "Ostrow Wielkopolski",
    "lat": 51.6494,
    "lng": 17.8164,
    "country": "Poland",
    "iso2": "PL",
    "iso3": "POL",
    "admin_name": "Wielkopolskie",
    "capital": "minor",
    "population": 70725,
    "id": "64899874-48fa-4992-a87f-055e4cf0977d"
  },
  {
    "city": "Lubin",
    "city_ascii": "Lubin",
    "lat": 51.4,
    "lng": 16.2,
    "country": "Poland",
    "iso2": "PL",
    "iso3": "POL",
    "admin_name": "Dolnośląskie",
    "capital": "minor",
    "population": 70016,
    "id": "1d5e819a-f975-47dc-bd35-40e4c80fb15b"
  },
  {
    "city": "Suwałki",
    "city_ascii": "Suwalki",
    "lat": 54.0989,
    "lng": 22.9286,
    "country": "Poland",
    "iso2": "PL",
    "iso3": "POL",
    "admin_name": "Podlaskie",
    "capital": "minor",
    "population": 69626,
    "id": "3c2dd3ab-edbc-4a5c-997f-b7b9ac6a3e73"
  },
  {
    "city": "Gniezno",
    "city_ascii": "Gniezno",
    "lat": 52.5358,
    "lng": 17.5958,
    "country": "Poland",
    "iso2": "PL",
    "iso3": "POL",
    "admin_name": "Wielkopolskie",
    "capital": "minor",
    "population": 68217,
    "id": "cf46bfc6-9a31-4196-a208-8a3ca921a14f"
  },
  {
    "city": "Stargard Szczeciński",
    "city_ascii": "Stargard Szczecinski",
    "lat": 53.3333,
    "lng": 15.05,
    "country": "Poland",
    "iso2": "PL",
    "iso3": "POL",
    "admin_name": "Zachodniopomorskie",
    "capital": "minor",
    "population": 67579,
    "id": "9bd379b1-4e4a-4151-a3ed-9e3c56ec8dc9"
  },
  {
    "city": "Głogów",
    "city_ascii": "Glogow",
    "lat": 51.6589,
    "lng": 16.0803,
    "country": "Poland",
    "iso2": "PL",
    "iso3": "POL",
    "admin_name": "Dolnośląskie",
    "capital": "minor",
    "population": 66980,
    "id": "61c5e60f-3fd5-4214-a74c-580c9d64d51c"
  },
  {
    "city": "Zamość",
    "city_ascii": "Zamosc",
    "lat": 50.7167,
    "lng": 23.2528,
    "country": "Poland",
    "iso2": "PL",
    "iso3": "POL",
    "admin_name": "Lubelskie",
    "capital": "minor",
    "population": 66234,
    "id": "5f3f705c-0ed0-4ed4-ab12-01983e825713"
  },
  {
    "city": "Przemyśl",
    "city_ascii": "Przemysl",
    "lat": 49.7833,
    "lng": 22.7667,
    "country": "Poland",
    "iso2": "PL",
    "iso3": "POL",
    "admin_name": "Podkarpackie",
    "capital": "minor",
    "population": 67847,
    "id": "52269b39-43a7-44d0-abe2-ba1334141859"
  },
  {
    "city": "Pabianice",
    "city_ascii": "Pabianice",
    "lat": 51.65,
    "lng": 19.3833,
    "country": "Poland",
    "iso2": "PL",
    "iso3": "POL",
    "admin_name": "Łódzkie",
    "capital": "minor",
    "population": 64988,
    "id": "55e6a55e-2ab3-4fd5-989a-0c56f30679da"
  },
  {
    "city": "Leszno",
    "city_ascii": "Leszno",
    "lat": 51.8458,
    "lng": 16.5806,
    "country": "Poland",
    "iso2": "PL",
    "iso3": "POL",
    "admin_name": "Wielkopolskie",
    "capital": "minor",
    "population": 63505,
    "id": "eaeff6ef-a17f-44e4-b4ae-8430d6e58dac"
  },
  {
    "city": "Chełm",
    "city_ascii": "Chelm",
    "lat": 51.1322,
    "lng": 23.4778,
    "country": "Poland",
    "iso2": "PL",
    "iso3": "POL",
    "admin_name": "Lubelskie",
    "capital": "minor",
    "population": 61588,
    "id": "a01e8901-0336-4389-8a5c-ff556ebad85e"
  },
  {
    "city": "Łomża",
    "city_ascii": "Lomza",
    "lat": 53.1764,
    "lng": 22.0731,
    "country": "Poland",
    "iso2": "PL",
    "iso3": "POL",
    "admin_name": "Podlaskie",
    "capital": "minor",
    "population": 62700,
    "id": "c551f9d4-d005-4107-8e38-dde57af635bf"
  },
  {
    "city": "Żory",
    "city_ascii": "Zory",
    "lat": 50.05,
    "lng": 18.7,
    "country": "Poland",
    "iso2": "PL",
    "iso3": "POL",
    "admin_name": "Śląskie",
    "capital": "minor",
    "population": 61823,
    "id": "5f261be3-5dcd-473c-9e05-3e2286cd5ef3"
  },
  {
    "city": "Tarnowskie Góry",
    "city_ascii": "Tarnowskie Gory",
    "lat": 50.4444,
    "lng": 18.8583,
    "country": "Poland",
    "iso2": "PL",
    "iso3": "POL",
    "admin_name": "Śląskie",
    "capital": "minor",
    "population": 61686,
    "id": "84f57f49-faae-4b18-a043-af62b52a7838"
  },
  {
    "city": "Mielec",
    "city_ascii": "Mielec",
    "lat": 50.2833,
    "lng": 21.4333,
    "country": "Poland",
    "iso2": "PL",
    "iso3": "POL",
    "admin_name": "Podkarpackie",
    "capital": "minor",
    "population": 60628,
    "id": "4aeb7902-d3b8-4045-a2f1-ffb57ff00438"
  },
  {
    "city": "Tomaszów Mazowiecki",
    "city_ascii": "Tomaszow Mazowiecki",
    "lat": 51.5167,
    "lng": 20.0167,
    "country": "Poland",
    "iso2": "PL",
    "iso3": "POL",
    "admin_name": "Łódzkie",
    "capital": "minor",
    "population": 59388,
    "id": "0332368a-6ace-466b-b813-12f1116c1ebd"
  },
  {
    "city": "Bełchatów",
    "city_ascii": "Belchatow",
    "lat": 51.3667,
    "lng": 19.3667,
    "country": "Poland",
    "iso2": "PL",
    "iso3": "POL",
    "admin_name": "Łódzkie",
    "capital": "minor",
    "population": 59025,
    "id": "4a0dd7f9-2736-4d16-ad16-fafc7a14a291"
  },
  {
    "city": "Stalowa Wola",
    "city_ascii": "Stalowa Wola",
    "lat": 50.5667,
    "lng": 22.05,
    "country": "Poland",
    "iso2": "PL",
    "iso3": "POL",
    "admin_name": "Podkarpackie",
    "capital": "minor",
    "population": 57620,
    "id": "4224368f-52e6-4157-a79b-16e1924cd07b"
  },
  {
    "city": "Będzin",
    "city_ascii": "Bedzin",
    "lat": 50.3333,
    "lng": 19.1167,
    "country": "Poland",
    "iso2": "PL",
    "iso3": "POL",
    "admin_name": "Śląskie",
    "capital": "minor",
    "population": 56354,
    "id": "432bad4e-afa8-4c92-9634-2ca55b731171"
  },
  {
    "city": "Biała Podlaska",
    "city_ascii": "Biala Podlaska",
    "lat": 52.0333,
    "lng": 23.1167,
    "country": "Poland",
    "iso2": "PL",
    "iso3": "POL",
    "admin_name": "Lubelskie",
    "capital": "minor",
    "population": 57498,
    "id": "7b7aa324-4c4e-480d-86ae-63fb90ed293d"
  },
  {
    "city": "Kędzierzyn-Koźle",
    "city_ascii": "Kedzierzyn-Kozle",
    "lat": 50.35,
    "lng": 18.2,
    "country": "Poland",
    "iso2": "PL",
    "iso3": "POL",
    "admin_name": "Opolskie",
    "capital": "minor",
    "population": 56931,
    "id": "319c2090-f5b1-4a63-9c66-44f96769d02d"
  },
  {
    "city": "Zgierz",
    "city_ascii": "Zgierz",
    "lat": 51.85,
    "lng": 19.4167,
    "country": "Poland",
    "iso2": "PL",
    "iso3": "POL",
    "admin_name": "Łódzkie",
    "capital": "minor",
    "population": 55079,
    "id": "e8fe048c-efd8-4e77-b067-d78dd80df7a6"
  },
  {
    "city": "Ostrołęka",
    "city_ascii": "Ostroleka",
    "lat": 53.0667,
    "lng": 21.5667,
    "country": "Poland",
    "iso2": "PL",
    "iso3": "POL",
    "admin_name": "Mazowieckie",
    "capital": "minor",
    "population": 52900,
    "id": "dc414300-e7b0-4612-85b8-3fcaa3be2f10"
  },
  {
    "city": "Piekary Śląskie",
    "city_ascii": "Piekary Slaskie",
    "lat": 50.3833,
    "lng": 18.95,
    "country": "Poland",
    "iso2": "PL",
    "iso3": "POL",
    "admin_name": "Śląskie",
    "capital": "minor",
    "population": 53017,
    "id": "4b4fc521-3a9b-4903-8a3a-fc894aed02c9"
  },
  {
    "city": "Rumia",
    "city_ascii": "Rumia",
    "lat": 54.5667,
    "lng": 18.4,
    "country": "Poland",
    "iso2": "PL",
    "iso3": "POL",
    "admin_name": "Pomorskie",
    "capital": "",
    "population": 51879,
    "id": "9e06baf7-6cea-4793-9b13-04c8fa0ca1dd"
  },
  {
    "city": "Piaseczno",
    "city_ascii": "Piaseczno",
    "lat": 52.0667,
    "lng": 21.0167,
    "country": "Poland",
    "iso2": "PL",
    "iso3": "POL",
    "admin_name": "Mazowieckie",
    "capital": "minor",
    "population": 51945,
    "id": "ea2cb7b2-72db-409c-8070-c9b3c62d4016"
  },
  {
    "city": "Racibórz",
    "city_ascii": "Raciborz",
    "lat": 50.0833,
    "lng": 18.2333,
    "country": "Poland",
    "iso2": "PL",
    "iso3": "POL",
    "admin_name": "Śląskie",
    "capital": "minor",
    "population": 51257,
    "id": "6cd826f6-ef5d-491d-b336-98d1e791ae1d"
  },
  {
    "city": "Puławy",
    "city_ascii": "Pulawy",
    "lat": 51.4167,
    "lng": 21.9667,
    "country": "Poland",
    "iso2": "PL",
    "iso3": "POL",
    "admin_name": "Lubelskie",
    "capital": "minor",
    "population": 49839,
    "id": "ae64be22-60e2-43c2-a59e-35d3899b4406"
  },
  {
    "city": "Starogard Gdański",
    "city_ascii": "Starogard Gdanski",
    "lat": 53.9667,
    "lng": 18.5333,
    "country": "Poland",
    "iso2": "PL",
    "iso3": "POL",
    "admin_name": "Pomorskie",
    "capital": "minor",
    "population": 48690,
    "id": "2551a558-178c-4d63-9b22-68fb433d2f94"
  },
  {
    "city": "Wejherowo",
    "city_ascii": "Wejherowo",
    "lat": 54.6,
    "lng": 18.25,
    "country": "Poland",
    "iso2": "PL",
    "iso3": "POL",
    "admin_name": "Pomorskie",
    "capital": "minor",
    "population": 47357,
    "id": "0dd310d0-1f14-4917-ab7f-cb35a1ee43b3"
  },
  {
    "city": "Starachowice",
    "city_ascii": "Starachowice",
    "lat": 51.05,
    "lng": 21.0667,
    "country": "Poland",
    "iso2": "PL",
    "iso3": "POL",
    "admin_name": "Świętokrzyskie",
    "capital": "minor",
    "population": 47638,
    "id": "5cdc23ee-f2d0-44ee-b1e8-50728942a004"
  },
  {
    "city": "Kołobrzeg",
    "city_ascii": "Kolobrzeg",
    "lat": 54.1761,
    "lng": 15.5761,
    "country": "Poland",
    "iso2": "PL",
    "iso3": "POL",
    "admin_name": "Zachodniopomorskie",
    "capital": "minor",
    "population": 46716,
    "id": "9242b50f-3db9-423d-a835-b54e1f6328eb"
  },
  {
    "city": "Tarnobrzeg",
    "city_ascii": "Tarnobrzeg",
    "lat": 50.5833,
    "lng": 21.6833,
    "country": "Poland",
    "iso2": "PL",
    "iso3": "POL",
    "admin_name": "Podkarpackie",
    "capital": "minor",
    "population": 47816,
    "id": "03473048-397d-420b-b7c7-a77038fa9d78"
  },
  {
    "city": "Zawiercie",
    "city_ascii": "Zawiercie",
    "lat": 50.5,
    "lng": 19.4167,
    "country": "Poland",
    "iso2": "PL",
    "iso3": "POL",
    "admin_name": "Śląskie",
    "capital": "minor",
    "population": 47689,
    "id": "a8f51a8a-65a4-442f-b156-833e5c1e653b"
  },
  {
    "city": "Skierniewice",
    "city_ascii": "Skierniewice",
    "lat": 51.9667,
    "lng": 20.15,
    "country": "Poland",
    "iso2": "PL",
    "iso3": "POL",
    "admin_name": "Łódzkie",
    "capital": "minor",
    "population": 47837,
    "id": "59a92454-93a7-471d-b0cc-1c8f29c8d67d"
  },
  {
    "city": "Kutno",
    "city_ascii": "Kutno",
    "lat": 52.2333,
    "lng": 19.3667,
    "country": "Poland",
    "iso2": "PL",
    "iso3": "POL",
    "admin_name": "Łódzkie",
    "capital": "minor",
    "population": 47557,
    "id": "8d27aa73-d3f4-46f1-ae3e-a36d33319f6e"
  },
  {
    "city": "Nysa",
    "city_ascii": "Nysa",
    "lat": 50.4714,
    "lng": 17.3339,
    "country": "Poland",
    "iso2": "PL",
    "iso3": "POL",
    "admin_name": "Opolskie",
    "capital": "minor",
    "population": 46841,
    "id": "d1b1e9bc-904d-4364-b717-451366472aed"
  },
  {
    "city": "Wodzisław Śląski",
    "city_ascii": "Wodzislaw Slaski",
    "lat": 50,
    "lng": 18.45,
    "country": "Poland",
    "iso2": "PL",
    "iso3": "POL",
    "admin_name": "Śląskie",
    "capital": "minor",
    "population": 45949,
    "id": "d6ac529c-a24f-4f28-878a-4fcd0aa6641b"
  },
  {
    "city": "Krosno",
    "city_ascii": "Krosno",
    "lat": 49.6833,
    "lng": 21.75,
    "country": "Poland",
    "iso2": "PL",
    "iso3": "POL",
    "admin_name": "Podkarpackie",
    "capital": "minor",
    "population": 45057,
    "id": "fa46ef1f-31ba-4b51-844b-8508bdb801a6"
  },
  {
    "city": "Otwock",
    "city_ascii": "Otwock",
    "lat": 52.1167,
    "lng": 21.2667,
    "country": "Poland",
    "iso2": "PL",
    "iso3": "POL",
    "admin_name": "Mazowieckie",
    "capital": "minor",
    "population": 44524,
    "id": "d51e2ad5-7737-427f-8bc5-68ed8404898c"
  },
  {
    "city": "Dębica",
    "city_ascii": "Debica",
    "lat": 50.05,
    "lng": 21.4167,
    "country": "Poland",
    "iso2": "PL",
    "iso3": "POL",
    "admin_name": "Podkarpackie",
    "capital": "minor",
    "population": 44047,
    "id": "7d8bbe96-83bb-47d2-8ab2-845247422600"
  },
  {
    "city": "Radomsko",
    "city_ascii": "Radomsko",
    "lat": 51.0667,
    "lng": 19.45,
    "country": "Poland",
    "iso2": "PL",
    "iso3": "POL",
    "admin_name": "Łódzkie",
    "capital": "minor",
    "population": 44441,
    "id": "83c5f8eb-9b8a-475b-98cf-bb96ad5e4ca1"
  },
  {
    "city": "Świdnik",
    "city_ascii": "Swidnik",
    "lat": 51.2167,
    "lng": 22.7,
    "country": "Poland",
    "iso2": "PL",
    "iso3": "POL",
    "admin_name": "Lubelskie",
    "capital": "minor",
    "population": 42797,
    "id": "82ec215d-0257-4d3e-be97-2988b9fc592c"
  },
  {
    "city": "Marki",
    "city_ascii": "Marki",
    "lat": 52.3333,
    "lng": 21.1,
    "country": "Poland",
    "iso2": "PL",
    "iso3": "POL",
    "admin_name": "Mazowieckie",
    "capital": "",
    "population": 42252,
    "id": "28f81bc4-4893-4433-8618-85e46205e1ec"
  },
  {
    "city": "Ciechanów",
    "city_ascii": "Ciechanow",
    "lat": 52.8667,
    "lng": 20.6333,
    "country": "Poland",
    "iso2": "PL",
    "iso3": "POL",
    "admin_name": "Mazowieckie",
    "capital": "minor",
    "population": 42965,
    "id": "c4a8b712-4e8f-4272-bafd-90c1fdf1d22d"
  },
  {
    "city": "Sieradz",
    "city_ascii": "Sieradz",
    "lat": 51.6,
    "lng": 18.75,
    "country": "Poland",
    "iso2": "PL",
    "iso3": "POL",
    "admin_name": "Łódzkie",
    "capital": "minor",
    "population": 42120,
    "id": "bfc2e75d-ab39-48aa-b4c1-64b6343c50d5"
  },
  {
    "city": "Chojnice",
    "city_ascii": "Chojnice",
    "lat": 53.7,
    "lng": 17.55,
    "country": "Poland",
    "iso2": "PL",
    "iso3": "POL",
    "admin_name": "Pomorskie",
    "capital": "minor",
    "population": 39937,
    "id": "8596ac53-999f-4627-8c10-faa5d813ff0f"
  },
  {
    "city": "Mikołów",
    "city_ascii": "Mikolow",
    "lat": 50.1667,
    "lng": 18.9,
    "country": "Poland",
    "iso2": "PL",
    "iso3": "POL",
    "admin_name": "Śląskie",
    "capital": "minor",
    "population": 41266,
    "id": "1c466b90-e8ab-4573-afa5-30fbde06b588"
  },
  {
    "city": "Kwidzyn",
    "city_ascii": "Kwidzyn",
    "lat": 53.7358,
    "lng": 18.9308,
    "country": "Poland",
    "iso2": "PL",
    "iso3": "POL",
    "admin_name": "Pomorskie",
    "capital": "minor",
    "population": 40008,
    "id": "c9c6ceba-e3e2-4385-ac06-13a1672b4b53"
  },
  {
    "city": "Świnoujście",
    "city_ascii": "Swinoujscie",
    "lat": 53.9167,
    "lng": 14.25,
    "country": "Poland",
    "iso2": "PL",
    "iso3": "POL",
    "admin_name": "Zachodniopomorskie",
    "capital": "minor",
    "population": 41479,
    "id": "d80417e6-b60c-4171-9ede-af425d268c52"
  },
  {
    "city": "Zduńska Wola",
    "city_ascii": "Zdunska Wola",
    "lat": 51.6,
    "lng": 18.9667,
    "country": "Poland",
    "iso2": "PL",
    "iso3": "POL",
    "admin_name": "Łódzkie",
    "capital": "minor",
    "population": 39846,
    "id": "c58361ca-838a-4461-8f45-cd09f0602dc5"
  },
  {
    "city": "Nowa Sól",
    "city_ascii": "Nowa Sol",
    "lat": 51.8,
    "lng": 15.7167,
    "country": "Poland",
    "iso2": "PL",
    "iso3": "POL",
    "admin_name": "Lubuskie",
    "capital": "minor",
    "population": 39721,
    "id": "55ce6d58-33e6-4385-9ab5-563fad665235"
  },
  {
    "city": "Bolesławiec",
    "city_ascii": "Boleslawiec",
    "lat": 51.2667,
    "lng": 15.5667,
    "country": "Poland",
    "iso2": "PL",
    "iso3": "POL",
    "admin_name": "Dolnośląskie",
    "capital": "minor",
    "population": 39412,
    "id": "c4c6cc63-0a19-485e-96ef-8aed676396cc"
  },
  {
    "city": "Oświęcim",
    "city_ascii": "Oswiecim",
    "lat": 50.0381,
    "lng": 19.2214,
    "country": "Poland",
    "iso2": "PL",
    "iso3": "POL",
    "admin_name": "Małopolskie",
    "capital": "minor",
    "population": 39057,
    "id": "262f9984-5c26-4b90-bd42-0f8d442f9106"
  },
  {
    "city": "Sopot",
    "city_ascii": "Sopot",
    "lat": 54.45,
    "lng": 18.5667,
    "country": "Poland",
    "iso2": "PL",
    "iso3": "POL",
    "admin_name": "Pomorskie",
    "capital": "minor",
    "population": 37457,
    "id": "47eaa484-350a-49ee-b769-c54e1199d753"
  },
  {
    "city": "Szczecinek",
    "city_ascii": "Szczecinek",
    "lat": 53.7167,
    "lng": 16.6833,
    "country": "Poland",
    "iso2": "PL",
    "iso3": "POL",
    "admin_name": "Zachodniopomorskie",
    "capital": "minor",
    "population": 38446,
    "id": "6072070a-3e06-406e-b948-2bad495d3438"
  },
  {
    "city": "Żary",
    "city_ascii": "Zary",
    "lat": 51.6333,
    "lng": 15.1333,
    "country": "Poland",
    "iso2": "PL",
    "iso3": "POL",
    "admin_name": "Lubuskie",
    "capital": "minor",
    "population": 37502,
    "id": "84ee54ee-6249-4e57-9afd-99b04a396322"
  },
  {
    "city": "Jarosław",
    "city_ascii": "Jaroslaw",
    "lat": 50.0186,
    "lng": 22.6797,
    "country": "Poland",
    "iso2": "PL",
    "iso3": "POL",
    "admin_name": "Podkarpackie",
    "capital": "minor",
    "population": 37479,
    "id": "7432ea2a-c639-409b-b82a-6c8e8e930ac3"
  },
  {
    "city": "Knurów",
    "city_ascii": "Knurow",
    "lat": 50.2167,
    "lng": 18.6833,
    "country": "Poland",
    "iso2": "PL",
    "iso3": "POL",
    "admin_name": "Śląskie",
    "capital": "",
    "population": 36498,
    "id": "e8e19226-4744-48de-9606-f7b2dd69a4ba"
  },
  {
    "city": "Oleśnica",
    "city_ascii": "Olesnica",
    "lat": 51.2,
    "lng": 17.3833,
    "country": "Poland",
    "iso2": "PL",
    "iso3": "POL",
    "admin_name": "Dolnośląskie",
    "capital": "minor",
    "population": 35856,
    "id": "74bd1e1d-1453-4470-8fb1-02b4eb48d673"
  },
  {
    "city": "Chrzanów",
    "city_ascii": "Chrzanow",
    "lat": 50.1333,
    "lng": 19.4,
    "country": "Poland",
    "iso2": "PL",
    "iso3": "POL",
    "admin_name": "Małopolskie",
    "capital": "minor",
    "population": 36575,
    "id": "f3e831af-ab6a-45a0-821d-1b47e943313a"
  },
  {
    "city": "Lębork",
    "city_ascii": "Lebork",
    "lat": 54.55,
    "lng": 17.75,
    "country": "Poland",
    "iso2": "PL",
    "iso3": "POL",
    "admin_name": "Pomorskie",
    "capital": "minor",
    "population": 35374,
    "id": "1d66bc63-1b76-402f-9513-4b34a5035765"
  },
  {
    "city": "Sanok",
    "city_ascii": "Sanok",
    "lat": 49.55,
    "lng": 22.2167,
    "country": "Poland",
    "iso2": "PL",
    "iso3": "POL",
    "admin_name": "Podkarpackie",
    "capital": "minor",
    "population": 35546,
    "id": "de80e8f3-39ec-40d2-ad39-af693288758e"
  },
  {
    "city": "Jasło",
    "city_ascii": "Jaslo",
    "lat": 49.7478,
    "lng": 21.4714,
    "country": "Poland",
    "iso2": "PL",
    "iso3": "POL",
    "admin_name": "Podkarpackie",
    "capital": "minor",
    "population": 35445,
    "id": "1424573e-8baf-4909-9c38-cddb2d90ee62"
  },
  {
    "city": "Czechowice-Dziedzice",
    "city_ascii": "Czechowice-Dziedzice",
    "lat": 49.9131,
    "lng": 19.0064,
    "country": "Poland",
    "iso2": "PL",
    "iso3": "POL",
    "admin_name": "Śląskie",
    "capital": "",
    "population": 35261,
    "id": "c9d941f4-e44d-474f-8e75-c186891f542c"
  },
  {
    "city": "Sochaczew",
    "city_ascii": "Sochaczew",
    "lat": 52.2333,
    "lng": 20.2333,
    "country": "Poland",
    "iso2": "PL",
    "iso3": "POL",
    "admin_name": "Mazowieckie",
    "capital": "minor",
    "population": 34439,
    "id": "9691e173-c8bc-4f57-8c34-5914e0a9a758"
  },
  {
    "city": "Cieszyn",
    "city_ascii": "Cieszyn",
    "lat": 49.75,
    "lng": 18.6333,
    "country": "Poland",
    "iso2": "PL",
    "iso3": "POL",
    "admin_name": "Śląskie",
    "capital": "minor",
    "population": 34513,
    "id": "1486bb46-fcbd-42f0-ac67-75427ce90527"
  },
  {
    "city": "Kraśnik",
    "city_ascii": "Krasnik",
    "lat": 50.9167,
    "lng": 22.2167,
    "country": "Poland",
    "iso2": "PL",
    "iso3": "POL",
    "admin_name": "Lubelskie",
    "capital": "minor",
    "population": 34230,
    "id": "9a114f85-9014-481f-9931-89292500b0d7"
  },
  {
    "city": "Iława",
    "city_ascii": "Ilawa",
    "lat": 53.5964,
    "lng": 19.5656,
    "country": "Poland",
    "iso2": "PL",
    "iso3": "POL",
    "admin_name": "Warmińsko-Mazurskie",
    "capital": "minor",
    "population": 33322,
    "id": "fe228fca-bf3d-45cd-9671-b95af92ad534"
  },
  {
    "city": "Dzierżoniów",
    "city_ascii": "Dzierzoniow",
    "lat": 50.7281,
    "lng": 16.6511,
    "country": "Poland",
    "iso2": "PL",
    "iso3": "POL",
    "admin_name": "Dolnośląskie",
    "capital": "minor",
    "population": 33137,
    "id": "6e0c9313-cb16-41ed-996a-974ce322b964"
  },
  {
    "city": "Oława",
    "city_ascii": "Olawa",
    "lat": 50.9333,
    "lng": 17.3,
    "country": "Poland",
    "iso2": "PL",
    "iso3": "POL",
    "admin_name": "Dolnośląskie",
    "capital": "minor",
    "population": 33268,
    "id": "fbc960dc-b131-4b32-8be9-f155fd90af74"
  },
  {
    "city": "Nowy Targ",
    "city_ascii": "Nowy Targ",
    "lat": 49.4667,
    "lng": 20.0167,
    "country": "Poland",
    "iso2": "PL",
    "iso3": "POL",
    "admin_name": "Małopolskie",
    "capital": "minor",
    "population": 33545,
    "id": "eac8219a-08f0-458b-bf6f-477a791e72be"
  },
  {
    "city": "Grodzisk Mazowiecki",
    "city_ascii": "Grodzisk Mazowiecki",
    "lat": 52.1167,
    "lng": 20.6333,
    "country": "Poland",
    "iso2": "PL",
    "iso3": "POL",
    "admin_name": "Mazowieckie",
    "capital": "minor",
    "population": 33708,
    "id": "7ed44f26-d0bd-4c68-9565-70816e9ebf33"
  },
  {
    "city": "Olkusz",
    "city_ascii": "Olkusz",
    "lat": 50.2813,
    "lng": 19.565,
    "country": "Poland",
    "iso2": "PL",
    "iso3": "POL",
    "admin_name": "Małopolskie",
    "capital": "minor",
    "population": 33462,
    "id": "9cdc1150-7671-43c9-9704-1d0aaaa5b93b"
  },
  {
    "city": "Pruszcz Gdański",
    "city_ascii": "Pruszcz Gdanski",
    "lat": 54.2667,
    "lng": 18.6333,
    "country": "Poland",
    "iso2": "PL",
    "iso3": "POL",
    "admin_name": "Pomorskie",
    "capital": "minor",
    "population": 31582,
    "id": "851b43ca-5859-4da8-bf9a-4049746197b2"
  },
  {
    "city": "Police",
    "city_ascii": "Police",
    "lat": 53.5333,
    "lng": 14.5667,
    "country": "Poland",
    "iso2": "PL",
    "iso3": "POL",
    "admin_name": "Zachodniopomorskie",
    "capital": "minor",
    "population": 33152,
    "id": "4ae6fcb6-41b0-4b57-b0f8-337f5c9680d6"
  },
  {
    "city": "Zgorzelec",
    "city_ascii": "Zgorzelec",
    "lat": 51.15,
    "lng": 15.0083,
    "country": "Poland",
    "iso2": "PL",
    "iso3": "POL",
    "admin_name": "Dolnośląskie",
    "capital": "minor",
    "population": 31359,
    "id": "812df897-8e94-471b-aa15-77ba3f169808"
  },
  {
    "city": "Czeladź",
    "city_ascii": "Czeladz",
    "lat": 50.3333,
    "lng": 19.0833,
    "country": "Poland",
    "iso2": "PL",
    "iso3": "POL",
    "admin_name": "Śląskie",
    "capital": "",
    "population": 30681,
    "id": "35507ad4-f948-4cb7-a7a5-520a0c2f52f4"
  },
  {
    "city": "Września",
    "city_ascii": "Wrzesnia",
    "lat": 52.3333,
    "lng": 17.5833,
    "country": "Poland",
    "iso2": "PL",
    "iso3": "POL",
    "admin_name": "Wielkopolskie",
    "capital": "minor",
    "population": 31986,
    "id": "070d2ce9-cea5-4054-89da-9efff03623c9"
  },
  {
    "city": "Mława",
    "city_ascii": "Mlawa",
    "lat": 53.1167,
    "lng": 20.3667,
    "country": "Poland",
    "iso2": "PL",
    "iso3": "POL",
    "admin_name": "Mazowieckie",
    "capital": "minor",
    "population": 30919,
    "id": "42561d57-eaf8-4e9d-a6d4-324a5bed4fb2"
  },
  {
    "city": "Łowicz",
    "city_ascii": "Lowicz",
    "lat": 52.1,
    "lng": 19.9333,
    "country": "Poland",
    "iso2": "PL",
    "iso3": "POL",
    "admin_name": "Łódzkie",
    "capital": "minor",
    "population": 30383,
    "id": "558bdfdd-0c0f-4973-aba6-4065fa2685f2"
  },
  {
    "city": "Bielsk Podlaski",
    "city_ascii": "Bielsk Podlaski",
    "lat": 52.7667,
    "lng": 23.2,
    "country": "Poland",
    "iso2": "PL",
    "iso3": "POL",
    "admin_name": "Podlaskie",
    "capital": "minor",
    "population": 30322,
    "id": "a7fef77d-d160-4461-8212-64698e8579e1"
  },
  {
    "city": "Łuków",
    "city_ascii": "Lukow",
    "lat": 51.9272,
    "lng": 22.3833,
    "country": "Poland",
    "iso2": "PL",
    "iso3": "POL",
    "admin_name": "Lubelskie",
    "capital": "minor",
    "population": 30381,
    "id": "266db3c9-9d70-49b1-90bf-76990fd0e5f1"
  },
  {
    "city": "Bochnia",
    "city_ascii": "Bochnia",
    "lat": 49.9833,
    "lng": 20.4333,
    "country": "Poland",
    "iso2": "PL",
    "iso3": "POL",
    "admin_name": "Małopolskie",
    "capital": "minor",
    "population": 30075,
    "id": "0f4faccb-7c8c-4e0c-9aa1-d842e40eaf62"
  },
  {
    "city": "Żywiec",
    "city_ascii": "Zywiec",
    "lat": 49.6892,
    "lng": 19.2058,
    "country": "Poland",
    "iso2": "PL",
    "iso3": "POL",
    "admin_name": "Śląskie",
    "capital": "minor",
    "population": 30334,
    "id": "4adfe47e-6733-4923-912c-9a8212c839c6"
  },
  {
    "city": "Myszków",
    "city_ascii": "Myszkow",
    "lat": 50.5833,
    "lng": 19.3167,
    "country": "Poland",
    "iso2": "PL",
    "iso3": "POL",
    "admin_name": "Śląskie",
    "capital": "minor",
    "population": 30415,
    "id": "68656c96-ab2d-4e17-804d-796b2bc28527"
  },
  {
    "city": "Bielawa",
    "city_ascii": "Bielawa",
    "lat": 50.7,
    "lng": 16.6167,
    "country": "Poland",
    "iso2": "PL",
    "iso3": "POL",
    "admin_name": "Dolnośląskie",
    "capital": "",
    "population": 29872,
    "id": "a0367d87-8443-4a9c-84ec-63a75cdc062f"
  },
  {
    "city": "Augustów",
    "city_ascii": "Augustow",
    "lat": 53.8436,
    "lng": 22.9794,
    "country": "Poland",
    "iso2": "PL",
    "iso3": "POL",
    "admin_name": "Podlaskie",
    "capital": "minor",
    "population": 30153,
    "id": "9b7b75c7-b242-4026-a8f1-4a4ec0d38253"
  },
  {
    "city": "Brodnica",
    "city_ascii": "Brodnica",
    "lat": 53.2597,
    "lng": 19.3956,
    "country": "Poland",
    "iso2": "PL",
    "iso3": "POL",
    "admin_name": "Kujawsko-Pomorskie",
    "capital": "minor",
    "population": 28880,
    "id": "de0c7d24-1771-4f45-b83c-ca212edaad6c"
  },
  {
    "city": "Swarzędz",
    "city_ascii": "Swarzedz",
    "lat": 52.4083,
    "lng": 17.0714,
    "country": "Poland",
    "iso2": "PL",
    "iso3": "POL",
    "admin_name": "Wielkopolskie",
    "capital": "",
    "population": 29295,
    "id": "ea7576ab-826a-452d-b766-796277f64215"
  },
  {
    "city": "Nowy Dwór Mazowiecki",
    "city_ascii": "Nowy Dwor Mazowiecki",
    "lat": 52.4333,
    "lng": 20.7167,
    "country": "Poland",
    "iso2": "PL",
    "iso3": "POL",
    "admin_name": "Mazowieckie",
    "capital": "minor",
    "population": 28651,
    "id": "ca31367a-3d1a-4cd7-9e85-06def5f5c4d5"
  },
  {
    "city": "Reda",
    "city_ascii": "Reda",
    "lat": 54.6167,
    "lng": 18.35,
    "country": "Poland",
    "iso2": "PL",
    "iso3": "POL",
    "admin_name": "Pomorskie",
    "capital": "",
    "population": 28190,
    "id": "14584764-f433-44a4-a79e-d219ac403174"
  },
  {
    "city": "Śrem",
    "city_ascii": "Srem",
    "lat": 52.0886,
    "lng": 17.0147,
    "country": "Poland",
    "iso2": "PL",
    "iso3": "POL",
    "admin_name": "Wielkopolskie",
    "capital": "minor",
    "population": 28835,
    "id": "a9784b4f-ac57-49f9-b766-bcbcde1c204f"
  },
  {
    "city": "Krotoszyn",
    "city_ascii": "Krotoszyn",
    "lat": 51.6833,
    "lng": 17.4333,
    "country": "Poland",
    "iso2": "PL",
    "iso3": "POL",
    "admin_name": "Wielkopolskie",
    "capital": "minor",
    "population": 28804,
    "id": "4ac3d2b3-75f6-4eed-b58d-d80a4dcac0ba"
  },
  {
    "city": "Kobyłka",
    "city_ascii": "Kobylka",
    "lat": 52.3333,
    "lng": 21.2,
    "country": "Poland",
    "iso2": "PL",
    "iso3": "POL",
    "admin_name": "Mazowieckie",
    "capital": "",
    "population": 27185,
    "id": "5be65ec4-b4c1-4baf-9c44-a688a770d7ac"
  },
  {
    "city": "Biłgoraj",
    "city_ascii": "Bilgoraj",
    "lat": 50.55,
    "lng": 22.7333,
    "country": "Poland",
    "iso2": "PL",
    "iso3": "POL",
    "admin_name": "Lubelskie",
    "capital": "minor",
    "population": 27290,
    "id": "0ad2d6ae-c0d9-4e7a-9726-75e31baf7256"
  },
  {
    "city": "Gorlice",
    "city_ascii": "Gorlice",
    "lat": 49.6547,
    "lng": 21.1597,
    "country": "Poland",
    "iso2": "PL",
    "iso3": "POL",
    "admin_name": "Małopolskie",
    "capital": "minor",
    "population": 27357,
    "id": "c8ed7bb0-01ab-4571-bee4-12153917e888"
  },
  {
    "city": "Kłodzko",
    "city_ascii": "Klodzko",
    "lat": 50.4333,
    "lng": 16.65,
    "country": "Poland",
    "iso2": "PL",
    "iso3": "POL",
    "admin_name": "Dolnośląskie",
    "capital": "minor",
    "population": 27193,
    "id": "c6410a79-b6fe-494c-8ff3-a9d49edef031"
  },
  {
    "city": "Zakopane",
    "city_ascii": "Zakopane",
    "lat": 49.3,
    "lng": 19.95,
    "country": "Poland",
    "iso2": "PL",
    "iso3": "POL",
    "admin_name": "Małopolskie",
    "capital": "minor",
    "population": 27490,
    "id": "f7e5faf4-bc9d-415a-b91e-bef5295f5919"
  },
  {
    "city": "Brzozów",
    "city_ascii": "Brzozow",
    "lat": 49.7,
    "lng": 22.0167,
    "country": "Poland",
    "iso2": "PL",
    "iso3": "POL",
    "admin_name": "Podkarpackie",
    "capital": "minor",
    "population": 26615,
    "id": "f2fe4339-1c59-4498-b780-3b4fdc9f06eb"
  },
  {
    "city": "Wągrowiec",
    "city_ascii": "Wagrowiec",
    "lat": 52.8,
    "lng": 17.2,
    "country": "Poland",
    "iso2": "PL",
    "iso3": "POL",
    "admin_name": "Wielkopolskie",
    "capital": "minor",
    "population": 25773,
    "id": "d7400c05-f5fe-4b8f-886f-355a6f8fb166"
  },
  {
    "city": "Turek",
    "city_ascii": "Turek",
    "lat": 52.0167,
    "lng": 18.5,
    "country": "Poland",
    "iso2": "PL",
    "iso3": "POL",
    "admin_name": "Wielkopolskie",
    "capital": "minor",
    "population": 25376,
    "id": "a765161a-2837-4d08-bb04-bd5c2cc762c1"
  },
  {
    "city": "Jarocin",
    "city_ascii": "Jarocin",
    "lat": 51.9667,
    "lng": 17.5,
    "country": "Poland",
    "iso2": "PL",
    "iso3": "POL",
    "admin_name": "Wielkopolskie",
    "capital": "minor",
    "population": 26565,
    "id": "b09cf73b-2cc7-4a7f-8a9d-c2636cd6deeb"
  },
  {
    "city": "Wieliczka",
    "city_ascii": "Wieliczka",
    "lat": 49.9894,
    "lng": 20.0661,
    "country": "Poland",
    "iso2": "PL",
    "iso3": "POL",
    "admin_name": "Małopolskie",
    "capital": "minor",
    "population": 26599,
    "id": "480dcb05-cdbd-420a-a560-4e9f5c8e199d"
  },
  {
    "city": "Wyszków",
    "city_ascii": "Wyszkow",
    "lat": 52.5928,
    "lng": 21.4584,
    "country": "Poland",
    "iso2": "PL",
    "iso3": "POL",
    "admin_name": "Mazowieckie",
    "capital": "minor",
    "population": 26349,
    "id": "a707c346-ee70-42b7-b357-1100a14c4c6f"
  },
  {
    "city": "Kluczbork",
    "city_ascii": "Kluczbork",
    "lat": 50.9833,
    "lng": 18.2167,
    "country": "Poland",
    "iso2": "PL",
    "iso3": "POL",
    "admin_name": "Opolskie",
    "capital": "minor",
    "population": 26164,
    "id": "6aff76f7-4c08-4e53-aeba-e7184480bd1c"
  },
  {
    "city": "Świecie",
    "city_ascii": "Swiecie",
    "lat": 53.4167,
    "lng": 18.4333,
    "country": "Poland",
    "iso2": "PL",
    "iso3": "POL",
    "admin_name": "Kujawsko-Pomorskie",
    "capital": "minor",
    "population": 26026,
    "id": "b504dffc-90b8-4e36-bb3e-919211dd0ac5"
  },
  {
    "city": "Pszczyna",
    "city_ascii": "Pszczyna",
    "lat": 49.9833,
    "lng": 18.95,
    "country": "Poland",
    "iso2": "PL",
    "iso3": "POL",
    "admin_name": "Śląskie",
    "capital": "minor",
    "population": 25565,
    "id": "7aad77e8-2184-451e-b8d8-5c0e976773e9"
  },
  {
    "city": "Wałcz",
    "city_ascii": "Walcz",
    "lat": 53.2667,
    "lng": 16.4667,
    "country": "Poland",
    "iso2": "PL",
    "iso3": "POL",
    "admin_name": "Zachodniopomorskie",
    "capital": "minor",
    "population": 24949,
    "id": "4e904996-2094-4fb5-8f5a-b0e0f8cf3358"
  },
  {
    "city": "Skawina",
    "city_ascii": "Skawina",
    "lat": 49.9833,
    "lng": 19.8333,
    "country": "Poland",
    "iso2": "PL",
    "iso3": "POL",
    "admin_name": "Małopolskie",
    "capital": "",
    "population": 24310,
    "id": "44ef0fe4-8437-43d3-b047-1d55a4c14794"
  },
  {
    "city": "Kościerzyna",
    "city_ascii": "Koscierzyna",
    "lat": 54.1167,
    "lng": 17.9833,
    "country": "Poland",
    "iso2": "PL",
    "iso3": "POL",
    "admin_name": "Pomorskie",
    "capital": "minor",
    "population": 23744,
    "id": "cb276ebc-6da1-40ab-9dd3-38065d26f5ee"
  },
  {
    "city": "Białogard",
    "city_ascii": "Bialogard",
    "lat": 54,
    "lng": 15.9833,
    "country": "Poland",
    "iso2": "PL",
    "iso3": "POL",
    "admin_name": "Zachodniopomorskie",
    "capital": "minor",
    "population": 24146,
    "id": "a26830c6-988d-4534-931c-73ca51d0c0b3"
  },
  {
    "city": "Żagań",
    "city_ascii": "Zagan",
    "lat": 51.6167,
    "lng": 15.3167,
    "country": "Poland",
    "iso2": "PL",
    "iso3": "POL",
    "admin_name": "Lubuskie",
    "capital": "minor",
    "population": 24424,
    "id": "5068465f-f9d0-46c4-926b-37c956d52530"
  },
  {
    "city": "Sandomierz",
    "city_ascii": "Sandomierz",
    "lat": 50.6833,
    "lng": 21.75,
    "country": "Poland",
    "iso2": "PL",
    "iso3": "POL",
    "admin_name": "Świętokrzyskie",
    "capital": "minor",
    "population": 24187,
    "id": "a9419a46-b0ff-42d8-ad36-d2c39c9aa9f4"
  },
  {
    "city": "Konstancin-Jeziorna",
    "city_ascii": "Konstancin-Jeziorna",
    "lat": 52.0833,
    "lng": 21.1167,
    "country": "Poland",
    "iso2": "PL",
    "iso3": "POL",
    "admin_name": "Mazowieckie",
    "capital": "",
    "population": 23694,
    "id": "4112cf4d-23c2-4282-91ca-f325261e0667"
  },
  {
    "city": "Środa Wielkopolska",
    "city_ascii": "Sroda Wielkopolska",
    "lat": 52.2333,
    "lng": 17.2833,
    "country": "Poland",
    "iso2": "PL",
    "iso3": "POL",
    "admin_name": "Wielkopolskie",
    "capital": "minor",
    "population": 24225,
    "id": "6669788d-8257-422a-99ed-f441840add5b"
  },
  {
    "city": "Bieruń Stary",
    "city_ascii": "Bierun Stary",
    "lat": 50.0897,
    "lng": 19.0928,
    "country": "Poland",
    "iso2": "PL",
    "iso3": "POL",
    "admin_name": "Śląskie",
    "capital": "",
    "population": 23640,
    "id": "027a13a9-abf8-438c-9b2e-b6257434ab20"
  },
  {
    "city": "Lubliniec",
    "city_ascii": "Lubliniec",
    "lat": 50.6833,
    "lng": 18.6833,
    "country": "Poland",
    "iso2": "PL",
    "iso3": "POL",
    "admin_name": "Śląskie",
    "capital": "minor",
    "population": 23660,
    "id": "89e4792b-178d-498f-85ef-36632b66664d"
  },
  {
    "city": "Jawor",
    "city_ascii": "Jawor",
    "lat": 51.05,
    "lng": 16.2,
    "country": "Poland",
    "iso2": "PL",
    "iso3": "POL",
    "admin_name": "Dolnośląskie",
    "capital": "minor",
    "population": 22758,
    "id": "c31f30ca-69ab-4439-86c5-cf4fa79c1732"
  },
  {
    "city": "Ostrów Mazowiecka",
    "city_ascii": "Ostrow Mazowiecka",
    "lat": 52.8,
    "lng": 21.9,
    "country": "Poland",
    "iso2": "PL",
    "iso3": "POL",
    "admin_name": "Mazowieckie",
    "capital": "minor",
    "population": 22800,
    "id": "7a1d8219-ff06-463b-88a9-6e2dc287b4c0"
  },
  {
    "city": "Płońsk",
    "city_ascii": "Plonsk",
    "lat": 52.6333,
    "lng": 20.3833,
    "country": "Poland",
    "iso2": "PL",
    "iso3": "POL",
    "admin_name": "Mazowieckie",
    "capital": "minor",
    "population": 21800,
    "id": "e0f77fdc-4934-43f0-861d-bed9a68119b1"
  },
  {
    "city": "Lubartów",
    "city_ascii": "Lubartow",
    "lat": 51.4667,
    "lng": 22.6,
    "country": "Poland",
    "iso2": "PL",
    "iso3": "POL",
    "admin_name": "Lubelskie",
    "capital": "minor",
    "population": 22138,
    "id": "295bd03a-b61d-4add-9907-2a109b5156bb"
  },
  {
    "city": "Koło",
    "city_ascii": "Kolo",
    "lat": 52.2,
    "lng": 18.6333,
    "country": "Poland",
    "iso2": "PL",
    "iso3": "POL",
    "admin_name": "Wielkopolskie",
    "capital": "minor",
    "population": 21686,
    "id": "5834327f-3265-4d90-8149-b050fdcd63bf"
  },
  {
    "city": "Grajewo",
    "city_ascii": "Grajewo",
    "lat": 53.65,
    "lng": 22.45,
    "country": "Poland",
    "iso2": "PL",
    "iso3": "POL",
    "admin_name": "Podlaskie",
    "capital": "minor",
    "population": 21900,
    "id": "e5684b54-8262-4d87-8707-398bf4315f48"
  },
  {
    "city": "Świebodzice",
    "city_ascii": "Swiebodzice",
    "lat": 50.8667,
    "lng": 16.3333,
    "country": "Poland",
    "iso2": "PL",
    "iso3": "POL",
    "admin_name": "Dolnośląskie",
    "capital": "",
    "population": 22219,
    "id": "bf191955-f4aa-4649-bb42-62b0a10584dd"
  },
  {
    "city": "Działdowo",
    "city_ascii": "Dzialdowo",
    "lat": 53.2333,
    "lng": 20.1833,
    "country": "Poland",
    "iso2": "PL",
    "iso3": "POL",
    "admin_name": "Warmińsko-Mazurskie",
    "capital": "minor",
    "population": 21279,
    "id": "bae13a59-1906-4213-a854-5fe80590b9e6"
  },
  {
    "city": "Mrągowo",
    "city_ascii": "Mragowo",
    "lat": 53.8667,
    "lng": 21.3,
    "country": "Poland",
    "iso2": "PL",
    "iso3": "POL",
    "admin_name": "Warmińsko-Mazurskie",
    "capital": "minor",
    "population": 21325,
    "id": "a9bb3c35-c442-44ac-981c-11d4164370bc"
  },
  {
    "city": "Łęczna",
    "city_ascii": "Leczna",
    "lat": 51.3,
    "lng": 22.8833,
    "country": "Poland",
    "iso2": "PL",
    "iso3": "POL",
    "admin_name": "Lubelskie",
    "capital": "minor",
    "population": 21802,
    "id": "2eb3f462-a5ee-4708-be91-e67b5d3ce493"
  },
  {
    "city": "Goleniów",
    "city_ascii": "Goleniow",
    "lat": 53.5636,
    "lng": 14.8281,
    "country": "Poland",
    "iso2": "PL",
    "iso3": "POL",
    "admin_name": "Zachodniopomorskie",
    "capital": "minor",
    "population": 22553,
    "id": "0ff36bbc-0106-4f9b-9125-a6dc806c65b4"
  },
  {
    "city": "Zambrów",
    "city_ascii": "Zambrow",
    "lat": 52.9833,
    "lng": 22.25,
    "country": "Poland",
    "iso2": "PL",
    "iso3": "POL",
    "admin_name": "Podlaskie",
    "capital": "minor",
    "population": 21351,
    "id": "ee7bfab3-1853-44e7-9086-85beb27c3b2f"
  },
  {
    "city": "Aleksandrów Łódzki",
    "city_ascii": "Aleksandrow Lodzki",
    "lat": 51.8194,
    "lng": 19.3039,
    "country": "Poland",
    "iso2": "PL",
    "iso3": "POL",
    "admin_name": "Łódzkie",
    "capital": "",
    "population": 22148,
    "id": "8b043f3d-9c94-455a-9c63-a29efe833257"
  },
  {
    "city": "Sulejówek",
    "city_ascii": "Sulejowek",
    "lat": 52.2442,
    "lng": 21.28,
    "country": "Poland",
    "iso2": "PL",
    "iso3": "POL",
    "admin_name": "Mazowieckie",
    "capital": "",
    "population": 21248,
    "id": "43db3802-bd6c-428e-b2a6-2030e55f79b7"
  },
  {
    "city": "Świedbodzin",
    "city_ascii": "Swiedbodzin",
    "lat": 52.25,
    "lng": 15.5333,
    "country": "Poland",
    "iso2": "PL",
    "iso3": "POL",
    "admin_name": "Lubuskie",
    "capital": "minor",
    "population": 21988,
    "id": "56caaa5d-4725-4015-8ecb-77a7af98b23b"
  },
  {
    "city": "Polkowice",
    "city_ascii": "Polkowice",
    "lat": 51.5,
    "lng": 16.0667,
    "country": "Poland",
    "iso2": "PL",
    "iso3": "POL",
    "admin_name": "Dolnośląskie",
    "capital": "minor",
    "population": 21786,
    "id": "fc6404a3-51b6-4047-a9a1-9c65a97000ab"
  },
  {
    "city": "Opoczno",
    "city_ascii": "Opoczno",
    "lat": 51.3772,
    "lng": 20.2869,
    "country": "Poland",
    "iso2": "PL",
    "iso3": "POL",
    "admin_name": "Łódzkie",
    "capital": "minor",
    "population": 21780,
    "id": "9eeee57c-62dc-4f8c-b357-63954489827e"
  },
  {
    "city": "Józefów",
    "city_ascii": "Jozefow",
    "lat": 52.1333,
    "lng": 21.2333,
    "country": "Poland",
    "iso2": "PL",
    "iso3": "POL",
    "admin_name": "Mazowieckie",
    "capital": "",
    "population": 21035,
    "id": "db6e6f74-06c1-4682-94ec-ec62cf2c70c6"
  },
  {
    "city": "Orzesze",
    "city_ascii": "Orzesze",
    "lat": 50.15,
    "lng": 18.75,
    "country": "Poland",
    "iso2": "PL",
    "iso3": "POL",
    "admin_name": "Śląskie",
    "capital": "",
    "population": 21631,
    "id": "d09ff3a3-0d73-498e-be65-7c293da68d0e"
  },
  {
    "city": "Nowa Ruda",
    "city_ascii": "Nowa Ruda",
    "lat": 50.5833,
    "lng": 16.5,
    "country": "Poland",
    "iso2": "PL",
    "iso3": "POL",
    "admin_name": "Dolnośląskie",
    "capital": "",
    "population": 21264,
    "id": "3c6da806-32c2-414f-92dd-8006c9a21444"
  },
  {
    "city": "Chełmno",
    "city_ascii": "Chelmno",
    "lat": 53.3492,
    "lng": 18.4231,
    "country": "Poland",
    "iso2": "PL",
    "iso3": "POL",
    "admin_name": "Kujawsko-Pomorskie",
    "capital": "minor",
    "population": 20428,
    "id": "e8f49e1e-40da-4f7e-8582-7d95f0d4dab9"
  },
  {
    "city": "Łaziska Górne",
    "city_ascii": "Laziska Gorne",
    "lat": 50.15,
    "lng": 18.85,
    "country": "Poland",
    "iso2": "PL",
    "iso3": "POL",
    "admin_name": "Śląskie",
    "capital": "",
    "population": 21592,
    "id": "e25cd29e-c3c3-4a9f-9350-714e9a006dad"
  },
  {
    "city": "Hajnówka",
    "city_ascii": "Hajnowka",
    "lat": 52.7333,
    "lng": 23.5833,
    "country": "Poland",
    "iso2": "PL",
    "iso3": "POL",
    "admin_name": "Podlaskie",
    "capital": "minor",
    "population": 20615,
    "id": "67f666b8-48a2-49e7-a07d-b41a18ba7c5a"
  },
  {
    "city": "Wieluń",
    "city_ascii": "Wielun",
    "lat": 51.2206,
    "lng": 18.57,
    "country": "Poland",
    "iso2": "PL",
    "iso3": "POL",
    "admin_name": "Łódzkie",
    "capital": "minor",
    "population": 21270,
    "id": "c5e72a25-e53d-4a70-9432-fadfc8607c1a"
  },
  {
    "city": "Prudnik",
    "city_ascii": "Prudnik",
    "lat": 50.3228,
    "lng": 17.5767,
    "country": "Poland",
    "iso2": "PL",
    "iso3": "POL",
    "admin_name": "Opolskie",
    "capital": "minor",
    "population": 21237,
    "id": "635c4111-27a8-4a20-aee8-db867dd7cab6"
  },
  {
    "city": "Gryfino",
    "city_ascii": "Gryfino",
    "lat": 53.2531,
    "lng": 14.4875,
    "country": "Poland",
    "iso2": "PL",
    "iso3": "POL",
    "admin_name": "Zachodniopomorskie",
    "capital": "minor",
    "population": 21221,
    "id": "1ae6a85a-347f-4ed1-9bf7-8b846c2b82a7"
  },
  {
    "city": "Lubań",
    "city_ascii": "Luban",
    "lat": 51.1181,
    "lng": 15.2889,
    "country": "Poland",
    "iso2": "PL",
    "iso3": "POL",
    "admin_name": "Dolnośląskie",
    "capital": "minor",
    "population": 20096,
    "id": "b65bf738-6f79-47e5-b684-d0a76c6dddaf"
  },
  {
    "city": "Rawicz",
    "city_ascii": "Rawicz",
    "lat": 51.6092,
    "lng": 16.8575,
    "country": "Poland",
    "iso2": "PL",
    "iso3": "POL",
    "admin_name": "Wielkopolskie",
    "capital": "minor",
    "population": 20305,
    "id": "9884e38d-52a4-47b2-9448-76f6d1847f3a"
  },
  {
    "city": "Pleszew",
    "city_ascii": "Pleszew",
    "lat": 51.8833,
    "lng": 17.7833,
    "country": "Poland",
    "iso2": "PL",
    "iso3": "POL",
    "admin_name": "Wielkopolskie",
    "capital": "minor",
    "population": 20365,
    "id": "d358d577-cb87-4e03-953e-3cbca4fd33e7"
  },
  {
    "city": "Chodzież",
    "city_ascii": "Chodziez",
    "lat": 52.9833,
    "lng": 16.9,
    "country": "Poland",
    "iso2": "PL",
    "iso3": "POL",
    "admin_name": "Wielkopolskie",
    "capital": "minor",
    "population": 19100,
    "id": "63ac03d1-0d1d-474a-842d-afd73b615d84"
  },
  {
    "city": "Gostyń",
    "city_ascii": "Gostyn",
    "lat": 51.8792,
    "lng": 17.0125,
    "country": "Poland",
    "iso2": "PL",
    "iso3": "POL",
    "admin_name": "Wielkopolskie",
    "capital": "minor",
    "population": 20296,
    "id": "2026ff13-e525-4b61-94b3-47ee0a1820d5"
  },
  {
    "city": "Złotów",
    "city_ascii": "Zlotow",
    "lat": 53.3603,
    "lng": 17.0408,
    "country": "Poland",
    "iso2": "PL",
    "iso3": "POL",
    "admin_name": "Wielkopolskie",
    "capital": "minor",
    "population": 18768,
    "id": "6f7a2161-185c-4952-a574-dc70c8720ddd"
  },
  {
    "city": "Kęty",
    "city_ascii": "Kety",
    "lat": 49.9,
    "lng": 19.2167,
    "country": "Poland",
    "iso2": "PL",
    "iso3": "POL",
    "admin_name": "Małopolskie",
    "capital": "",
    "population": 19428,
    "id": "5dc0a156-c248-41d4-a5af-3276b9b207c7"
  },
  {
    "city": "Giszowiec",
    "city_ascii": "Giszowiec",
    "lat": 50.2333,
    "lng": 19.0667,
    "country": "Poland",
    "iso2": "PL",
    "iso3": "POL",
    "admin_name": "Śląskie",
    "capital": "",
    "population": 18475,
    "id": "3a1a8d13-32d3-45e4-8949-0acee9debefd"
  },
  {
    "city": "Tomaszów Lubelski",
    "city_ascii": "Tomaszow Lubelski",
    "lat": 50.45,
    "lng": 23.4167,
    "country": "Poland",
    "iso2": "PL",
    "iso3": "POL",
    "admin_name": "Lubelskie",
    "capital": "minor",
    "population": 18567,
    "id": "6f322111-f4de-444e-8ed3-d51161f026ef"
  },
  {
    "city": "Ozorków",
    "city_ascii": "Ozorkow",
    "lat": 51.9667,
    "lng": 19.2833,
    "country": "Poland",
    "iso2": "PL",
    "iso3": "POL",
    "admin_name": "Łódzkie",
    "capital": "",
    "population": 18721,
    "id": "042df52a-1230-4df6-b329-d8eb1b9cef0a"
  },
  {
    "city": "Dęblin",
    "city_ascii": "Deblin",
    "lat": 51.5667,
    "lng": 21.8614,
    "country": "Poland",
    "iso2": "PL",
    "iso3": "POL",
    "admin_name": "Lubelskie",
    "capital": "",
    "population": 19513,
    "id": "c1212738-ee66-4410-b20d-4bf74055bead"
  },
  {
    "city": "Bieruń",
    "city_ascii": "Bierun",
    "lat": 50.1333,
    "lng": 19.1,
    "country": "Poland",
    "iso2": "PL",
    "iso3": "POL",
    "admin_name": "Śląskie",
    "capital": "minor",
    "population": 19334,
    "id": "0f939d6c-f999-4369-8353-03ada4730463"
  },
  {
    "city": "Trzebinia",
    "city_ascii": "Trzebinia",
    "lat": 50.1667,
    "lng": 19.4833,
    "country": "Poland",
    "iso2": "PL",
    "iso3": "POL",
    "admin_name": "Małopolskie",
    "capital": "",
    "population": 19134,
    "id": "032c2d12-1d7a-49a5-bfaa-9a5932a2c017"
  },
  {
    "city": "Nakło nad Notecią",
    "city_ascii": "Naklo nad Notecia",
    "lat": 53.1403,
    "lng": 17.5928,
    "country": "Poland",
    "iso2": "PL",
    "iso3": "POL",
    "admin_name": "Kujawsko-Pomorskie",
    "capital": "minor",
    "population": 19507,
    "id": "ba6a7fbe-8e31-42a8-aa48-45e2e82338dc"
  },
  {
    "city": "Konstantynów Łódzki",
    "city_ascii": "Konstantynow Lodzki",
    "lat": 51.75,
    "lng": 19.3333,
    "country": "Poland",
    "iso2": "PL",
    "iso3": "POL",
    "admin_name": "Łódzkie",
    "capital": "",
    "population": 18960,
    "id": "12c51da0-f778-492d-ac8f-d2d33dcdaa82"
  },
  {
    "city": "Andrychów",
    "city_ascii": "Andrychow",
    "lat": 49.855,
    "lng": 19.3414,
    "country": "Poland",
    "iso2": "PL",
    "iso3": "POL",
    "admin_name": "Małopolskie",
    "capital": "",
    "population": 19203,
    "id": "f20579ee-cc5d-42e6-9a02-36e79ab56796"
  },
  {
    "city": "Jasien",
    "city_ascii": "Jasien",
    "lat": 54.3399,
    "lng": 18.56,
    "country": "Poland",
    "iso2": "PL",
    "iso3": "POL",
    "admin_name": "Pomorskie",
    "capital": "",
    "population": 18014,
    "id": "8716cefe-8750-4938-ad76-f4b6bbab8270"
  },
  {
    "city": "Sokołów Podlaski",
    "city_ascii": "Sokolow Podlaski",
    "lat": 52.4,
    "lng": 22.25,
    "country": "Poland",
    "iso2": "PL",
    "iso3": "POL",
    "admin_name": "Mazowieckie",
    "capital": "minor",
    "population": 18526,
    "id": "30dda226-2161-499c-b6cb-fe7a1bd5b743"
  },
  {
    "city": "Pułtusk",
    "city_ascii": "Pultusk",
    "lat": 52.7,
    "lng": 21.0833,
    "country": "Poland",
    "iso2": "PL",
    "iso3": "POL",
    "admin_name": "Mazowieckie",
    "capital": "minor",
    "population": 19327,
    "id": "e38bdb1f-65dc-41dd-830d-7b48e4ef4541"
  },
  {
    "city": "Łańcut",
    "city_ascii": "Lancut",
    "lat": 50.0667,
    "lng": 22.2333,
    "country": "Poland",
    "iso2": "PL",
    "iso3": "POL",
    "admin_name": "Podkarpackie",
    "capital": "minor",
    "population": 17768,
    "id": "cbb76a7f-f02c-43ce-b4fd-b53412b9f9b4"
  },
  {
    "city": "Krasnystaw",
    "city_ascii": "Krasnystaw",
    "lat": 50.9833,
    "lng": 23.1833,
    "country": "Poland",
    "iso2": "PL",
    "iso3": "POL",
    "admin_name": "Lubelskie",
    "capital": "minor",
    "population": 18630,
    "id": "fbaf1a38-7bb5-4868-acf9-d5ca6b419e13"
  },
  {
    "city": "Gostynin",
    "city_ascii": "Gostynin",
    "lat": 52.4167,
    "lng": 19.4667,
    "country": "Poland",
    "iso2": "PL",
    "iso3": "POL",
    "admin_name": "Mazowieckie",
    "capital": "minor",
    "population": 18527,
    "id": "40831af5-81ec-4b2b-b7b1-18f0a76ac645"
  },
  {
    "city": "Kamienna Góra",
    "city_ascii": "Kamienna Gora",
    "lat": 50.7833,
    "lng": 16.0333,
    "country": "Poland",
    "iso2": "PL",
    "iso3": "POL",
    "admin_name": "Dolnośląskie",
    "capital": "minor",
    "population": 17998,
    "id": "8693a273-0b41-4b41-8fb1-367ade48fa92"
  },
  {
    "city": "Rawa Mazowiecka",
    "city_ascii": "Rawa Mazowiecka",
    "lat": 51.7658,
    "lng": 20.2533,
    "country": "Poland",
    "iso2": "PL",
    "iso3": "POL",
    "admin_name": "Łódzkie",
    "capital": "minor",
    "population": 17765,
    "id": "ed9eb01e-95ee-4e56-84a7-f457385c4f31"
  },
  {
    "city": "Szamotuły",
    "city_ascii": "Szamotuly",
    "lat": 52.6,
    "lng": 16.5833,
    "country": "Poland",
    "iso2": "PL",
    "iso3": "POL",
    "admin_name": "Wielkopolskie",
    "capital": "minor",
    "population": 18639,
    "id": "c232ea6b-1d75-4e66-98f4-f1d4f5538f6e"
  },
  {
    "city": "Myślenice",
    "city_ascii": "Myslenice",
    "lat": 49.8347,
    "lng": 19.9389,
    "country": "Poland",
    "iso2": "PL",
    "iso3": "POL",
    "admin_name": "Małopolskie",
    "capital": "minor",
    "population": 18051,
    "id": "1edcdcce-74d3-4382-af84-e29a18d11a0d"
  },
  {
    "city": "Międzyrzecz",
    "city_ascii": "Miedzyrzecz",
    "lat": 52.4483,
    "lng": 15.5883,
    "country": "Poland",
    "iso2": "PL",
    "iso3": "POL",
    "admin_name": "Lubuskie",
    "capital": "minor",
    "population": 18459,
    "id": "e165ed31-e761-4242-a45b-bb2684c7374f"
  },
  {
    "city": "Kostrzyn nad Odrą",
    "city_ascii": "Kostrzyn nad Odra",
    "lat": 52.5883,
    "lng": 14.6667,
    "country": "Poland",
    "iso2": "PL",
    "iso3": "POL",
    "admin_name": "Lubuskie",
    "capital": "",
    "population": 18125,
    "id": "8af4544c-a239-4d22-91fc-efb6688f10ca"
  },
  {
    "city": "Zielonka",
    "city_ascii": "Zielonka",
    "lat": 52.3008,
    "lng": 21.1586,
    "country": "Poland",
    "iso2": "PL",
    "iso3": "POL",
    "admin_name": "Mazowieckie",
    "capital": "",
    "population": 18219,
    "id": "5662b894-d2af-4912-86d8-22d6171740be"
  },
  {
    "city": "Garwolin",
    "city_ascii": "Garwolin",
    "lat": 51.9,
    "lng": 21.6333,
    "country": "Poland",
    "iso2": "PL",
    "iso3": "POL",
    "admin_name": "Mazowieckie",
    "capital": "minor",
    "population": 17602,
    "id": "d292f05e-6994-4868-85b3-878b046b54b6"
  },
  {
    "city": "Końskie",
    "city_ascii": "Konskie",
    "lat": 51.2,
    "lng": 20.4167,
    "country": "Poland",
    "iso2": "PL",
    "iso3": "POL",
    "admin_name": "Świętokrzyskie",
    "capital": "minor",
    "population": 18201,
    "id": "5e49d244-8871-4929-96ac-49c0e99d8076"
  },
  {
    "city": "Braniewo",
    "city_ascii": "Braniewo",
    "lat": 54.3833,
    "lng": 19.8333,
    "country": "Poland",
    "iso2": "PL",
    "iso3": "POL",
    "admin_name": "Warmińsko-Mazurskie",
    "capital": "minor",
    "population": 16992,
    "id": "858d5205-a9cc-40ea-a448-836adca3d690"
  },
  {
    "city": "Pisz",
    "city_ascii": "Pisz",
    "lat": 53.6333,
    "lng": 21.8,
    "country": "Poland",
    "iso2": "PL",
    "iso3": "POL",
    "admin_name": "Warmińsko-Mazurskie",
    "capital": "minor",
    "population": 18245,
    "id": "9826d37e-417b-42e5-8e46-6142de3c59db"
  },
  {
    "city": "Wadowice",
    "city_ascii": "Wadowice",
    "lat": 49.8833,
    "lng": 19.5,
    "country": "Poland",
    "iso2": "PL",
    "iso3": "POL",
    "admin_name": "Małopolskie",
    "capital": "minor",
    "population": 17905,
    "id": "48a319b2-f434-4060-8661-29de399d3fa1"
  },
  {
    "city": "Sierpc",
    "city_ascii": "Sierpc",
    "lat": 52.8833,
    "lng": 19.6667,
    "country": "Poland",
    "iso2": "PL",
    "iso3": "POL",
    "admin_name": "Mazowieckie",
    "capital": "minor",
    "population": 17308,
    "id": "1fa0b5f8-b2ee-4e49-abf5-1f2e62958f7c"
  },
  {
    "city": "Łask",
    "city_ascii": "Lask",
    "lat": 51.5903,
    "lng": 19.1333,
    "country": "Poland",
    "iso2": "PL",
    "iso3": "POL",
    "admin_name": "Łódzkie",
    "capital": "minor",
    "population": 18029,
    "id": "2a7b9611-7387-4e89-b3f3-32c85e1cdd87"
  },
  {
    "city": "Rypin",
    "city_ascii": "Rypin",
    "lat": 53.0667,
    "lng": 19.45,
    "country": "Poland",
    "iso2": "PL",
    "iso3": "POL",
    "admin_name": "Kujawsko-Pomorskie",
    "capital": "minor",
    "population": 16558,
    "id": "c8e07533-493d-417f-9bfc-94a4586f7920"
  },
  {
    "city": "Oborniki",
    "city_ascii": "Oborniki",
    "lat": 52.65,
    "lng": 16.8167,
    "country": "Poland",
    "iso2": "PL",
    "iso3": "POL",
    "admin_name": "Wielkopolskie",
    "capital": "minor",
    "population": 17895,
    "id": "4582ed9f-765f-4afa-acc6-b8c7cdb36851"
  },
  {
    "city": "Pyskowice",
    "city_ascii": "Pyskowice",
    "lat": 50.3833,
    "lng": 18.6167,
    "country": "Poland",
    "iso2": "PL",
    "iso3": "POL",
    "admin_name": "Śląskie",
    "capital": "",
    "population": 17394,
    "id": "2bb78f88-4c51-4aef-8a67-241e2a580766"
  },
  {
    "city": "Międzyrzec Podlaski",
    "city_ascii": "Miedzyrzec Podlaski",
    "lat": 51.9833,
    "lng": 22.7833,
    "country": "Poland",
    "iso2": "PL",
    "iso3": "POL",
    "admin_name": "Lubelskie",
    "capital": "",
    "population": 17117,
    "id": "2aa211b8-cbae-407c-887d-10e45195aa02"
  },
  {
    "city": "Złotoryja",
    "city_ascii": "Zlotoryja",
    "lat": 51.1333,
    "lng": 15.9167,
    "country": "Poland",
    "iso2": "PL",
    "iso3": "POL",
    "admin_name": "Dolnośląskie",
    "capital": "minor",
    "population": 16479,
    "id": "9f292da1-e6ce-4db3-84e0-717574466bad"
  },
  {
    "city": "Milanówek",
    "city_ascii": "Milanowek",
    "lat": 52.1333,
    "lng": 20.6833,
    "country": "Poland",
    "iso2": "PL",
    "iso3": "POL",
    "admin_name": "Mazowieckie",
    "capital": "",
    "population": 16490,
    "id": "37393cd9-3adf-4e06-a673-378ffce0f8d3"
  },
  {
    "city": "Sokółka",
    "city_ascii": "Sokolka",
    "lat": 53.4,
    "lng": 23.5,
    "country": "Poland",
    "iso2": "PL",
    "iso3": "POL",
    "admin_name": "Podlaskie",
    "capital": "minor",
    "population": 17616,
    "id": "9b4945f8-54b0-4d3b-b305-c8720444bb68"
  },
  {
    "city": "Pionki",
    "city_ascii": "Pionki",
    "lat": 51.4833,
    "lng": 21.45,
    "country": "Poland",
    "iso2": "PL",
    "iso3": "POL",
    "admin_name": "Mazowieckie",
    "capital": "",
    "population": 16779,
    "id": "9f437cb1-b0df-4ec7-bd3a-2d748a167d61"
  },
  {
    "city": "Strzelce Opolskie",
    "city_ascii": "Strzelce Opolskie",
    "lat": 50.5,
    "lng": 18.2833,
    "country": "Poland",
    "iso2": "PL",
    "iso3": "POL",
    "admin_name": "Opolskie",
    "capital": "minor",
    "population": 17512,
    "id": "bc19705c-214b-4caf-955c-a1c98d2b09ce"
  },
  {
    "city": "Radzionków Nowy",
    "city_ascii": "Radzionkow Nowy",
    "lat": 50.3833,
    "lng": 18.8833,
    "country": "Poland",
    "iso2": "PL",
    "iso3": "POL",
    "admin_name": "Śląskie",
    "capital": "",
    "population": 16253,
    "id": "930b46f2-cb2d-4276-8675-90b93f7334c6"
  },
  {
    "city": "Hrubieszów",
    "city_ascii": "Hrubieszow",
    "lat": 50.8167,
    "lng": 23.8833,
    "country": "Poland",
    "iso2": "PL",
    "iso3": "POL",
    "admin_name": "Lubelskie",
    "capital": "minor",
    "population": 16832,
    "id": "393b2259-413d-45f6-a057-38769e6803ea"
  },
  {
    "city": "Przasnysz",
    "city_ascii": "Przasnysz",
    "lat": 53.0167,
    "lng": 20.8833,
    "country": "Poland",
    "iso2": "PL",
    "iso3": "POL",
    "admin_name": "Mazowieckie",
    "capital": "minor",
    "population": 16662,
    "id": "f84eb570-f268-4db5-9cb3-9c94bbd25f11"
  },
  {
    "city": "Grójec",
    "city_ascii": "Grojec",
    "lat": 51.8656,
    "lng": 20.8675,
    "country": "Poland",
    "iso2": "PL",
    "iso3": "POL",
    "admin_name": "Mazowieckie",
    "capital": "minor",
    "population": 17037,
    "id": "3080bc0f-04de-4325-b236-acdee5edcfd9"
  },
  {
    "city": "Ustka",
    "city_ascii": "Ustka",
    "lat": 54.5833,
    "lng": 16.85,
    "country": "Poland",
    "iso2": "PL",
    "iso3": "POL",
    "admin_name": "Pomorskie",
    "capital": "",
    "population": 15812,
    "id": "85cc31a3-6ef4-4b10-ba72-6c108ee7e104"
  },
  {
    "city": "Kozienice",
    "city_ascii": "Kozienice",
    "lat": 51.5833,
    "lng": 21.5667,
    "country": "Poland",
    "iso2": "PL",
    "iso3": "POL",
    "admin_name": "Mazowieckie",
    "capital": "minor",
    "population": 17075,
    "id": "41eee261-e0fb-4ea8-b317-f2b48d44a6ae"
  },
  {
    "city": "Brzesko",
    "city_ascii": "Brzesko",
    "lat": 49.9667,
    "lng": 20.6167,
    "country": "Poland",
    "iso2": "PL",
    "iso3": "POL",
    "admin_name": "Małopolskie",
    "capital": "minor",
    "population": 16819,
    "id": "4bbb65c8-e02c-4ab4-96ea-efe6c041f03c"
  },
  {
    "city": "Gubin",
    "city_ascii": "Gubin",
    "lat": 51.95,
    "lng": 14.7167,
    "country": "Poland",
    "iso2": "PL",
    "iso3": "POL",
    "admin_name": "Lubuskie",
    "capital": "",
    "population": 17150,
    "id": "922e67fa-e234-4492-adb6-d79bb39eee48"
  },
  {
    "city": "Łęczyca",
    "city_ascii": "Leczyca",
    "lat": 52.05,
    "lng": 19.2,
    "country": "Poland",
    "iso2": "PL",
    "iso3": "POL",
    "admin_name": "Łódzkie",
    "capital": "minor",
    "population": 15593,
    "id": "c8dbf112-b6ba-4c11-95c2-cd60e1da3e3c"
  },
  {
    "city": "Namysłów",
    "city_ascii": "Namyslow",
    "lat": 51.0728,
    "lng": 17.7069,
    "country": "Poland",
    "iso2": "PL",
    "iso3": "POL",
    "admin_name": "Opolskie",
    "capital": "minor",
    "population": 16942,
    "id": "a0856f67-070d-465a-8849-73bef57c99b1"
  },
  {
    "city": "Bytów",
    "city_ascii": "Bytow",
    "lat": 54.1333,
    "lng": 17.5,
    "country": "Poland",
    "iso2": "PL",
    "iso3": "POL",
    "admin_name": "Pomorskie",
    "capital": "minor",
    "population": 16888,
    "id": "994ff39a-7658-4ffc-8948-dd6257ac63dc"
  },
  {
    "city": "Osowa",
    "city_ascii": "Osowa",
    "lat": 54.4272,
    "lng": 18.4708,
    "country": "Poland",
    "iso2": "PL",
    "iso3": "POL",
    "admin_name": "Pomorskie",
    "capital": "",
    "population": 15843,
    "id": "a5c75fec-8256-4df7-b129-e53fbe2123ed"
  },
  {
    "city": "Krapkowice",
    "city_ascii": "Krapkowice",
    "lat": 50.4667,
    "lng": 17.9667,
    "country": "Poland",
    "iso2": "PL",
    "iso3": "POL",
    "admin_name": "Opolskie",
    "capital": "minor",
    "population": 16721,
    "id": "3db017c5-4be6-49dc-adcb-43e80ea63780"
  },
  {
    "city": "Bogatynia",
    "city_ascii": "Bogatynia",
    "lat": 50.9069,
    "lng": 14.9569,
    "country": "Poland",
    "iso2": "PL",
    "iso3": "POL",
    "admin_name": "Dolnośląskie",
    "capital": "",
    "population": 16647,
    "id": "fd97dbc5-e126-4cb7-b5d1-c9a938b232b7"
  },
  {
    "city": "Trzcianka",
    "city_ascii": "Trzcianka",
    "lat": 53.05,
    "lng": 16.4667,
    "country": "Poland",
    "iso2": "PL",
    "iso3": "POL",
    "admin_name": "Wielkopolskie",
    "capital": "",
    "population": 16831,
    "id": "5445da17-2d4c-42dd-b97f-214120fb07ee"
  },
  {
    "city": "Libiąż",
    "city_ascii": "Libiaz",
    "lat": 50.1,
    "lng": 19.3167,
    "country": "Poland",
    "iso2": "PL",
    "iso3": "POL",
    "admin_name": "Małopolskie",
    "capital": "",
    "population": 16385,
    "id": "e46ee6e0-faf4-44bf-ad37-abafc01c7dbe"
  },
  {
    "city": "Strzegom",
    "city_ascii": "Strzegom",
    "lat": 50.9611,
    "lng": 16.3444,
    "country": "Poland",
    "iso2": "PL",
    "iso3": "POL",
    "admin_name": "Dolnośląskie",
    "capital": "",
    "population": 16650,
    "id": "fddd922e-58ba-47ce-9b07-a12569bed469"
  },
  {
    "city": "Gryfice",
    "city_ascii": "Gryfice",
    "lat": 53.9147,
    "lng": 15.1986,
    "country": "Poland",
    "iso2": "PL",
    "iso3": "POL",
    "admin_name": "Zachodniopomorskie",
    "capital": "minor",
    "population": 16524,
    "id": "41e0b1ec-5622-44c0-9364-b58332f437d7"
  },
  {
    "city": "Chełmża",
    "city_ascii": "Chelmza",
    "lat": 53.1847,
    "lng": 18.6042,
    "country": "Poland",
    "iso2": "PL",
    "iso3": "POL",
    "admin_name": "Kujawsko-Pomorskie",
    "capital": "",
    "population": 14808,
    "id": "a94592d7-f6a5-4c95-a22b-ee15b7e64ac9"
  },
  {
    "city": "Słubice",
    "city_ascii": "Slubice",
    "lat": 52.35,
    "lng": 14.5667,
    "country": "Poland",
    "iso2": "PL",
    "iso3": "POL",
    "admin_name": "Lubuskie",
    "capital": "minor",
    "population": 16495,
    "id": "ab9c1bb9-0462-441f-bf3b-1eef746065a4"
  },
  {
    "city": "Olecko",
    "city_ascii": "Olecko",
    "lat": 54.0333,
    "lng": 22.5,
    "country": "Poland",
    "iso2": "PL",
    "iso3": "POL",
    "admin_name": "Warmińsko-Mazurskie",
    "capital": "minor",
    "population": 16364,
    "id": "f7e4c2d7-9e49-455e-bebf-f1d2b59e0261"
  },
  {
    "city": "Ustroń",
    "city_ascii": "Ustron",
    "lat": 49.7194,
    "lng": 18.8119,
    "country": "Poland",
    "iso2": "PL",
    "iso3": "POL",
    "admin_name": "Śląskie",
    "capital": "",
    "population": 16118,
    "id": "ee66e31e-6758-49cc-8a93-7ef3cdad249e"
  },
  {
    "city": "Przeworsk",
    "city_ascii": "Przeworsk",
    "lat": 50.0667,
    "lng": 22.5,
    "country": "Poland",
    "iso2": "PL",
    "iso3": "POL",
    "admin_name": "Podkarpackie",
    "capital": "minor",
    "population": 15713,
    "id": "15bf9b51-9e8f-440c-a6c9-dcdf06c9c74d"
  },
  {
    "city": "Niepołomice",
    "city_ascii": "Niepolomice",
    "lat": 50.0339,
    "lng": 20.2172,
    "country": "Poland",
    "iso2": "PL",
    "iso3": "POL",
    "admin_name": "Małopolskie",
    "capital": "",
    "population": 15697,
    "id": "c8054bcb-63cc-4913-8cdb-6dc0a0bf22a1"
  },
  {
    "city": "Sulechów",
    "city_ascii": "Sulechow",
    "lat": 52.0833,
    "lng": 15.6167,
    "country": "Poland",
    "iso2": "PL",
    "iso3": "POL",
    "admin_name": "Lubuskie",
    "capital": "",
    "population": 16063,
    "id": "57ff6641-0bc3-49da-a5d2-0ad883789f58"
  },
  {
    "city": "Nowogard",
    "city_ascii": "Nowogard",
    "lat": 53.6667,
    "lng": 15.1167,
    "country": "Poland",
    "iso2": "PL",
    "iso3": "POL",
    "admin_name": "Zachodniopomorskie",
    "capital": "",
    "population": 16102,
    "id": "b1dad89a-0b62-443a-8154-846396b132ab"
  },
  {
    "city": "Ropczyce",
    "city_ascii": "Ropczyce",
    "lat": 50.05,
    "lng": 21.6167,
    "country": "Poland",
    "iso2": "PL",
    "iso3": "POL",
    "admin_name": "Podkarpackie",
    "capital": "minor",
    "population": 15815,
    "id": "dd828001-e4c0-497d-bd70-cf66facd2cfe"
  },
  {
    "city": "Świdwin",
    "city_ascii": "Swidwin",
    "lat": 53.7833,
    "lng": 15.7667,
    "country": "Poland",
    "iso2": "PL",
    "iso3": "POL",
    "admin_name": "Zachodniopomorskie",
    "capital": "minor",
    "population": 15338,
    "id": "4f754b4a-d895-49b0-b657-e248169fc79b"
  },
  {
    "city": "Lidzbark Warmiński",
    "city_ascii": "Lidzbark Warminski",
    "lat": 54.1167,
    "lng": 20.5833,
    "country": "Poland",
    "iso2": "PL",
    "iso3": "POL",
    "admin_name": "Warmińsko-Mazurskie",
    "capital": "minor",
    "population": 14878,
    "id": "0d9cb685-d845-46c7-b1d7-f8c9651ac94a"
  },
  {
    "city": "Józefosław",
    "city_ascii": "Jozefoslaw",
    "lat": 52.1005,
    "lng": 21.0463,
    "country": "Poland",
    "iso2": "PL",
    "iso3": "POL",
    "admin_name": "Mazowieckie",
    "capital": "",
    "population": 14806,
    "id": "e272e6ee-f7b9-485a-8a19-78fa736efb2b"
  },
  {
    "city": "Jędrzejów",
    "city_ascii": "Jedrzejow",
    "lat": 50.6333,
    "lng": 20.3,
    "country": "Poland",
    "iso2": "PL",
    "iso3": "POL",
    "admin_name": "Świętokrzyskie",
    "capital": "minor",
    "population": 15484,
    "id": "bd602e97-5271-4fed-9079-66190ed5da53"
  },
  {
    "city": "Radzyń Podlaski",
    "city_ascii": "Radzyn Podlaski",
    "lat": 51.7828,
    "lng": 22.6242,
    "country": "Poland",
    "iso2": "PL",
    "iso3": "POL",
    "admin_name": "Lubelskie",
    "capital": "minor",
    "population": 14806,
    "id": "183440eb-c57d-4136-9cc5-e2e8dfd6bfc9"
  },
  {
    "city": "Solec Kujawski",
    "city_ascii": "Solec Kujawski",
    "lat": 53.0833,
    "lng": 18.2333,
    "country": "Poland",
    "iso2": "PL",
    "iso3": "POL",
    "admin_name": "Kujawsko-Pomorskie",
    "capital": "",
    "population": 15458,
    "id": "f5e3b3e5-faa5-48db-a868-88c5c8b69d94"
  },
  {
    "city": "Siemiatycze",
    "city_ascii": "Siemiatycze",
    "lat": 52.4272,
    "lng": 22.8625,
    "country": "Poland",
    "iso2": "PL",
    "iso3": "POL",
    "admin_name": "Podlaskie",
    "capital": "minor",
    "population": 15169,
    "id": "5c03002f-86b9-4f4a-b7b5-6c013730d847"
  },
  {
    "city": "Jelcz-Laskowice",
    "city_ascii": "Jelcz-Laskowice",
    "lat": 51.0333,
    "lng": 17.3333,
    "country": "Poland",
    "iso2": "PL",
    "iso3": "POL",
    "admin_name": "Dolnośląskie",
    "capital": "",
    "population": 15380,
    "id": "c8708da5-687e-4b8a-908c-40194203cfed"
  },
  {
    "city": "Limanowa",
    "city_ascii": "Limanowa",
    "lat": 49.7006,
    "lng": 20.4267,
    "country": "Poland",
    "iso2": "PL",
    "iso3": "POL",
    "admin_name": "Małopolskie",
    "capital": "minor",
    "population": 14738,
    "id": "5a433c45-c618-4404-afde-f6c173dcf1f6"
  },
  {
    "city": "Głuchołazy",
    "city_ascii": "Glucholazy",
    "lat": 50.3131,
    "lng": 17.3742,
    "country": "Poland",
    "iso2": "PL",
    "iso3": "POL",
    "admin_name": "Opolskie",
    "capital": "",
    "population": 15293,
    "id": "764c3657-add6-488a-9304-6ae9394cee0e"
  },
  {
    "city": "Grodzisk Wielkopolski",
    "city_ascii": "Grodzisk Wielkopolski",
    "lat": 52.2333,
    "lng": 16.3667,
    "country": "Poland",
    "iso2": "PL",
    "iso3": "POL",
    "admin_name": "Wielkopolskie",
    "capital": "minor",
    "population": 15131,
    "id": "3a58c9fc-5905-461c-934c-c93cfc35716f"
  },
  {
    "city": "Władysławowo",
    "city_ascii": "Wladyslawowo",
    "lat": 54.8,
    "lng": 18.4,
    "country": "Poland",
    "iso2": "PL",
    "iso3": "POL",
    "admin_name": "Pomorskie",
    "capital": "",
    "population": 15015,
    "id": "9b831c6f-2841-488b-8503-2a37dae89e6d"
  },
  {
    "city": "Choszczno",
    "city_ascii": "Choszczno",
    "lat": 53.1667,
    "lng": 15.4167,
    "country": "Poland",
    "iso2": "PL",
    "iso3": "POL",
    "admin_name": "Zachodniopomorskie",
    "capital": "minor",
    "population": 15109,
    "id": "b583cea9-c372-4c73-9436-fa33ab7034cb"
  },
  {
    "city": "Boguszów-Gorce",
    "city_ascii": "Boguszow-Gorce",
    "lat": 50.7667,
    "lng": 16.2,
    "country": "Poland",
    "iso2": "PL",
    "iso3": "POL",
    "admin_name": "Dolnośląskie",
    "capital": "",
    "population": 14648,
    "id": "e6677663-0a29-4cc9-8179-4120b864ed9a"
  },
  {
    "city": "Busko-Zdrój",
    "city_ascii": "Busko-Zdroj",
    "lat": 50.4667,
    "lng": 20.7167,
    "country": "Poland",
    "iso2": "PL",
    "iso3": "POL",
    "admin_name": "Świętokrzyskie",
    "capital": "minor",
    "population": 15014,
    "id": "4a91e36a-8603-4245-8034-1b46157805c1"
  },
  {
    "city": "Nisko",
    "city_ascii": "Nisko",
    "lat": 50.52,
    "lng": 22.1394,
    "country": "Poland",
    "iso2": "PL",
    "iso3": "POL",
    "admin_name": "Podkarpackie",
    "capital": "minor",
    "population": 14874,
    "id": "27ce84b8-0d1e-479f-b2ba-a12416e01b0d"
  },
  {
    "city": "Lipno",
    "city_ascii": "Lipno",
    "lat": 52.85,
    "lng": 19.1667,
    "country": "Poland",
    "iso2": "PL",
    "iso3": "POL",
    "admin_name": "Kujawsko-Pomorskie",
    "capital": "minor",
    "population": 13752,
    "id": "fbcfa9d5-ef2d-4094-bb10-922252cb3333"
  },
  {
    "city": "Łapy",
    "city_ascii": "Lapy",
    "lat": 52.9833,
    "lng": 22.8833,
    "country": "Poland",
    "iso2": "PL",
    "iso3": "POL",
    "admin_name": "Podlaskie",
    "capital": "",
    "population": 14790,
    "id": "76b67d09-a64d-4041-99d6-2a65486a28de"
  },
  {
    "city": "Człuchów",
    "city_ascii": "Czluchow",
    "lat": 53.6667,
    "lng": 17.3667,
    "country": "Poland",
    "iso2": "PL",
    "iso3": "POL",
    "admin_name": "Pomorskie",
    "capital": "minor",
    "population": 13869,
    "id": "63f2d61f-880c-4fb6-937b-e5071a9fd3d7"
  },
  {
    "city": "Radzymin",
    "city_ascii": "Radzymin",
    "lat": 52.4167,
    "lng": 21.1833,
    "country": "Poland",
    "iso2": "PL",
    "iso3": "POL",
    "admin_name": "Mazowieckie",
    "capital": "",
    "population": 14314,
    "id": "29bc680a-6d83-4fb1-a0a6-0ba5e9618510"
  },
  {
    "city": "Wąbrzeźno",
    "city_ascii": "Wabrzezno",
    "lat": 53.2833,
    "lng": 18.95,
    "country": "Poland",
    "iso2": "PL",
    "iso3": "POL",
    "admin_name": "Kujawsko-Pomorskie",
    "capital": "minor",
    "population": 13317,
    "id": "f9059032-68ba-4e6c-bd7f-bd5cc46cb7c4"
  },
  {
    "city": "Brwinów",
    "city_ascii": "Brwinow",
    "lat": 52.1417,
    "lng": 20.7167,
    "country": "Poland",
    "iso2": "PL",
    "iso3": "POL",
    "admin_name": "Mazowieckie",
    "capital": "",
    "population": 14448,
    "id": "361e9363-93bf-40ce-8554-0d7e0cd07b79"
  },
  {
    "city": "Ząbkowice Śląskie",
    "city_ascii": "Zabkowice Slaskie",
    "lat": 50.5833,
    "lng": 16.8167,
    "country": "Poland",
    "iso2": "PL",
    "iso3": "POL",
    "admin_name": "Dolnośląskie",
    "capital": "minor",
    "population": 14728,
    "id": "6b397b3c-9a15-4882-8ddb-f964937900bb"
  },
  {
    "city": "Wschowa",
    "city_ascii": "Wschowa",
    "lat": 51.8,
    "lng": 16.3167,
    "country": "Poland",
    "iso2": "PL",
    "iso3": "POL",
    "admin_name": "Lubuskie",
    "capital": "minor",
    "population": 14607,
    "id": "6bdf5e64-8845-4548-9754-ae2eb392f282"
  },
  {
    "city": "Mosina",
    "city_ascii": "Mosina",
    "lat": 52.2467,
    "lng": 16.845,
    "country": "Poland",
    "iso2": "PL",
    "iso3": "POL",
    "admin_name": "Wielkopolskie",
    "capital": "",
    "population": 14511,
    "id": "86dba1ff-4433-4116-b20f-315173c1ffa6"
  },
  {
    "city": "Ożarów Mazowiecki",
    "city_ascii": "Ozarow Mazowiecki",
    "lat": 52.2167,
    "lng": 20.8,
    "country": "Poland",
    "iso2": "PL",
    "iso3": "POL",
    "admin_name": "Mazowieckie",
    "capital": "minor",
    "population": 14375,
    "id": "d4d9138f-f32d-42a9-b3a4-9ecf85c697bf"
  },
  {
    "city": "Słupca",
    "city_ascii": "Slupca",
    "lat": 52.3,
    "lng": 17.8667,
    "country": "Poland",
    "iso2": "PL",
    "iso3": "POL",
    "admin_name": "Wielkopolskie",
    "capital": "minor",
    "population": 13353,
    "id": "054df280-a2fa-47de-ab7e-3ad5d44736fd"
  },
  {
    "city": "Plewiska",
    "city_ascii": "Plewiska",
    "lat": 52.3664,
    "lng": 16.8089,
    "country": "Poland",
    "iso2": "PL",
    "iso3": "POL",
    "admin_name": "Wielkopolskie",
    "capital": "",
    "population": 14160,
    "id": "10bfebb4-eb37-4fce-b325-722259fef463"
  },
  {
    "city": "Darłowo",
    "city_ascii": "Darlowo",
    "lat": 54.4208,
    "lng": 16.4097,
    "country": "Poland",
    "iso2": "PL",
    "iso3": "POL",
    "admin_name": "Zachodniopomorskie",
    "capital": "",
    "population": 13943,
    "id": "81a34459-9db7-4f40-9129-661657654495"
  },
  {
    "city": "Kartuzy",
    "city_ascii": "Kartuzy",
    "lat": 54.3333,
    "lng": 18.2,
    "country": "Poland",
    "iso2": "PL",
    "iso3": "POL",
    "admin_name": "Pomorskie",
    "capital": "minor",
    "population": 14204,
    "id": "79c10ab2-a667-4398-ae3e-181e2f7ede96"
  },
  {
    "city": "Lubsko",
    "city_ascii": "Lubsko",
    "lat": 51.8,
    "lng": 14.9667,
    "country": "Poland",
    "iso2": "PL",
    "iso3": "POL",
    "admin_name": "Lubuskie",
    "capital": "",
    "population": 14182,
    "id": "0e689d16-0bed-4a29-b804-e16430a25e05"
  },
  {
    "city": "Staszów",
    "city_ascii": "Staszow",
    "lat": 50.5642,
    "lng": 21.1669,
    "country": "Poland",
    "iso2": "PL",
    "iso3": "POL",
    "admin_name": "Świętokrzyskie",
    "capital": "minor",
    "population": 14158,
    "id": "c5413b9a-adb2-4d53-b626-9aad6ccfc044"
  },
  {
    "city": "Nowy Tomyśl",
    "city_ascii": "Nowy Tomysl",
    "lat": 52.3167,
    "lng": 16.1333,
    "country": "Poland",
    "iso2": "PL",
    "iso3": "POL",
    "admin_name": "Wielkopolskie",
    "capital": "minor",
    "population": 14116,
    "id": "c56b57ee-e7cd-4db3-8b7f-9630adfe172a"
  },
  {
    "city": "Głowno",
    "city_ascii": "Glowno",
    "lat": 51.9642,
    "lng": 19.7117,
    "country": "Poland",
    "iso2": "PL",
    "iso3": "POL",
    "admin_name": "Łódzkie",
    "capital": "",
    "population": 13506,
    "id": "a5f19007-a4f9-4b33-92ca-a94f1e9e50fe"
  },
  {
    "city": "Ostrzeszów",
    "city_ascii": "Ostrzeszow",
    "lat": 51.4167,
    "lng": 17.9333,
    "country": "Poland",
    "iso2": "PL",
    "iso3": "POL",
    "admin_name": "Wielkopolskie",
    "capital": "minor",
    "population": 14036,
    "id": "c813c403-2228-4330-96bb-439e5fbc4458"
  },
  {
    "city": "Kępno",
    "city_ascii": "Kepno",
    "lat": 51.2833,
    "lng": 17.9833,
    "country": "Poland",
    "iso2": "PL",
    "iso3": "POL",
    "admin_name": "Wielkopolskie",
    "capital": "minor",
    "population": 13951,
    "id": "55830061-8a12-456a-925c-15375a3d7c8b"
  },
  {
    "city": "Golub-Dobrzyń",
    "city_ascii": "Golub-Dobrzyn",
    "lat": 53.1,
    "lng": 19.05,
    "country": "Poland",
    "iso2": "PL",
    "iso3": "POL",
    "admin_name": "Kujawsko-Pomorskie",
    "capital": "minor",
    "population": 12546,
    "id": "66def9ae-3896-4da3-bb20-4281dd4d9123"
  },
  {
    "city": "Skoczów",
    "city_ascii": "Skoczow",
    "lat": 49.8006,
    "lng": 18.7883,
    "country": "Poland",
    "iso2": "PL",
    "iso3": "POL",
    "admin_name": "Śląskie",
    "capital": "",
    "population": 13814,
    "id": "c4b90ca3-1f0d-4ad5-861e-452d5352261a"
  },
  {
    "city": "Aleksandrów Kujawski",
    "city_ascii": "Aleksandrow Kujawski",
    "lat": 52.8767,
    "lng": 18.6936,
    "country": "Poland",
    "iso2": "PL",
    "iso3": "POL",
    "admin_name": "Kujawsko-Pomorskie",
    "capital": "minor",
    "population": 12359,
    "id": "fa23e59f-42c5-4ad3-982b-069c657b75bb"
  },
  {
    "city": "Leżajsk",
    "city_ascii": "Lezajsk",
    "lat": 50.2667,
    "lng": 22.4333,
    "country": "Poland",
    "iso2": "PL",
    "iso3": "POL",
    "admin_name": "Podkarpackie",
    "capital": "minor",
    "population": 13164,
    "id": "e3428c14-7f47-468a-b929-51670871f603"
  },
  {
    "city": "Gołdap",
    "city_ascii": "Goldap",
    "lat": 54.3161,
    "lng": 22.3094,
    "country": "Poland",
    "iso2": "PL",
    "iso3": "POL",
    "admin_name": "Warmińsko-Mazurskie",
    "capital": "minor",
    "population": 13716,
    "id": "de2fbabb-5a39-4cbc-82ad-a800bd56cc60"
  },
  {
    "city": "Włodawa",
    "city_ascii": "Wlodawa",
    "lat": 51.55,
    "lng": 23.55,
    "country": "Poland",
    "iso2": "PL",
    "iso3": "POL",
    "admin_name": "Lubelskie",
    "capital": "minor",
    "population": 13066,
    "id": "8d491ef0-dcbc-4f91-b462-09697292e573"
  },